id,name,region,category,address,lon,lat,rating,imageUrl,memo
1,"도른계 강남역점",강남,한식,"서울 강남구 강남대로96길 12 B동 1층 102호 (역삼동)",127.02806874,37.49973606,4.3,https://img1.kakaocdn.net/cthumb/local/R0x420.q50/?fname=http%3A%2F%2Ft1.kakaocdn.net%2Ffiy_reboot%2Fplace%2F6BCA545B94A944118FCA7DF4DC870DB7,"아 여기 진짜 도랐어요..."
2,가양칼국수,영등포/여의도/강서,한식,"서울 영등포구 국제금융로 78 홍우빌딩 지하1층 지하3호 (여의도동)",126.93137163,37.52093631,4.1,https://img1.kakaocdn.net/cthumb/local/R0x420.q50/?fname=http%3A%2F%2Ft1.daumcdn.net%2Flocal%2FkakaomapPhoto%2Freview%2F2aa83fb56a52c388b4e173f5392361e1e9502ede%3Foriginal,NULL
3,ELAH펍앤브런치,강남,호프집,"서울 강남구 강남대로94길 27-15 (역삼동)",127.02908694,37.50074494,4.9,https://img1.kakaocdn.net/cthumb/local/R0x420.q50/?fname=http%3A%2F%2Ft1.daumcdn.net%2Flocal%2FkakaomapPhoto%2Freview%2F69cc13e95e9505b6445c61bd759ff0722bd22a16%3Foriginal,"아 주모 여기 한 잔주소"
4,"솔솥 강남역점",강남,한식,"서울 강남구 테헤란로1길 28-8 1층 (역삼동)",127.02813228,37.50028386,4.3,https://img1.kakaocdn.net/cthumb/local/R0x420.q50/?fname=http%3A%2F%2Ft1.kakaocdn.net%2Fmystore%2F6F32EB1BF5054C59BE8C670AAECB2B04,NULL
5,"취중서가 삼각지점",용산/이태원/한남,한식,"서울 용산구 한강대로 206-1 1-2층 (한강로1가)",126.97458755,37.53691927,5,https://img1.kakaocdn.net/cthumb/local/R0x420.q50/?fname=http%3A%2F%2Ft1.kakaocdn.net%2Fmystore%2F678A4D59640D4E0880CDF91A1B6D07A5,NULL
6,HHSS하우스,홍대/합정/마포,카공카페,"서울 마포구 월드컵로 113 3층 303호 (망원동)",126.90759257,37.5584089,4,https://img1.kakaocdn.net/cthumb/local/R0x420.q50/?fname=http%3A%2F%2Ft1.daumcdn.net%2Flocal%2FkakaomapPhoto%2Freview%2Fabe95ce33706cc37cf4bc818e51d4ab1408ae132%3Foriginal,NULL
7,키노이에,종로/중구,일식,"서울 중구 동호로 325 1층 1호 (오장동)",127.00216411,37.56353027,4.5,https://img1.kakaocdn.net/cthumb/local/R0x420.q50/?fname=https%3A%2F%2Fpostfiles.pstatic.net%2FMjAyNDExMjRfMTUx%2FMDAxNzMyNDM3NDUxNDA3.T1DHTaVqITiSMWCXKKSmshJgD0L27CZkKNDGA_rpac4g.SVOk4nwmBdUB3qcTZHqNK5iKZC54wHRP6yX-LV_A_dYg.JPEG%2FKakaoTalk_20241124_172410902_12.jpg%3Ftype%3Dw966,NULL
8,풍뉴,종로/중구,한식,"서울 중구 퇴계로70길 10-3 1층 (신당동)",127.01102438,37.56423976,4.5,https://img1.kakaocdn.net/cthumb/local/R0x420.q50/?fname=https%3A%2F%2Fpostfiles.pstatic.net%2FMjAyNDA1MTRfODIg%2FMDAxNzE1NjkxODA0MTk5.l3E48KG2JQv9p0PfoC82YZZFJJDAgr10hPHbKBSvTagg.H5kKQnUBlg7gknIjABQMV3Z52RhrzPSq1lG8ftoVYxsg.JPEG%2FIMG_6538.JPG%3Ftype%3Dw773,NULL
9,"오키드고멧 안국",종로/중구,카페,"서울 종로구 창덕궁길 35 2층 (원서동)",126.98912287,37.57909899,0,https://via.placeholder.com/150,NULL
10,타자기,용산/이태원/한남,카페,"서울 용산구 신흥로 97-5 2층 (용산동2가)",126.9848821,37.54523186,4.2,https://img1.kakaocdn.net/cthumb/local/R0x420.q50/?fname=http%3A%2F%2Ft1.kakaocdn.net%2Fmystore%2F097EEB31F8C14952BF541AC7070EC6A1,NULL
11,바제,서초,양식,"서울 서초구 방배천로8길 34 1층 104호 (방배동)",126.98439771,37.48042076,4.8,https://img1.kakaocdn.net/cthumb/local/R0x420.q50/?fname=http%3A%2F%2Ft1.daumcdn.net%2Flocal%2FkakaomapPhoto%2Freview%2F3fdbf1ac2ae120e629003a224e1a1ba554c4fe08%3Foriginal,NULL
12,라아,신촌/연희,양식,"서울 서대문구 연희로11라길 10-8 1층 (연희동)",126.93037722,37.56846524,4.7,https://img1.kakaocdn.net/cthumb/local/R0x420.q50/?fname=http%3A%2F%2Ft1.kakaocdn.net%2Fmystore%2F683234E98AE049E9BEB83EB68FBEA829,NULL
13,누에하우스,종로/중구,양식,"서울 중구 수표로6길 2 3층 (충무로3가)",126.99047894,37.56268657,4.3,https://img1.kakaocdn.net/cthumb/local/R0x420.q50/?fname=http%3A%2F%2Ft1.daumcdn.net%2Flocal%2FkakaomapPhoto%2Freview%2F1fbdb3de08e450a2db366fac0198a1e811dce78e%3Foriginal,NULL
14,바찌서울,건대/성수/왕십리,버거,"서울 성동구 상원1길 39-1 1층 (성수동1가)",127.04683941,37.54696787,0,https://via.placeholder.com/150,NULL
15,잎차,용산/이태원/한남,카페,"서울 용산구 신흥로 95-21 2층 (용산동2가)",126.98502245,37.54505168,0,https://via.placeholder.com/150,NULL
16,"금천문 오향족발",용산/이태원/한남,한식,"서울 용산구 한강대로 268 1층 (남영동)",126.97306951,37.54219879,4.3,https://img1.kakaocdn.net/cthumb/local/R0x420.q50/?fname=http%3A%2F%2Ft1.kakaocdn.net%2Fmystore%2F269CE234026341AB9E508D90D0F42FF0,NULL
17,"로코스 비비큐 경리단길본점",용산/이태원/한남,양식,"서울 용산구 회나무로 83 지층 (이태원동)",126.99554183,37.54098723,4.3,https://img1.kakaocdn.net/cthumb/local/R0x420.q50/?fname=http%3A%2F%2Ft1.daumcdn.net%2Fplace%2F13D9F6C56D5C4A98B4FCE875737D57AE,NULL
18,홍명,강남,중식,"서울 강남구 논현로131길 10 1층 (논현동)",127.02945877,37.51453743,3.7,https://img1.kakaocdn.net/cthumb/local/R0x420.q50/?fname=http%3A%2F%2Ft1.daumcdn.net%2Flocal%2FkakaomapPhoto%2Freview%2Fa3306a89eb4ae9180845783082d6f9354434eb0f%3Foriginal,NULL
19,"왕스덕 논현점",강남,중식,"서울 강남구 도산대로 130 하림타워 지하1층 (논현동)",127.02302126,37.51713736,3.8,https://img1.kakaocdn.net/cthumb/local/R0x420.q50/?fname=https%3A%2F%2Fpostfiles.pstatic.net%2FMjAyNDAxMDJfMTYg%2FMDAxNzA0MTk3ODQxNDcw.zPK8c9zSFJhmu9xOZ_bMGvjNeip67D6XS6kZwPFxB5wg.Whkfu-xWLcHYpmxE1Q8eBrIeIbEodzTS6y9OzjhWcuEg.JPEG.hujeee%2FIMG_2950.jpg%3Ftype%3Dw966,NULL
20,까페여름,신촌/연희,카페,"서울 서대문구 가재울로6길 53-3 1층 (남가좌동)",126.92378124,37.576462,0,https://via.placeholder.com/150,NULL
21,"어게인스트 보더스센터",건대/성수/왕십리,와인바,"서울 성동구 독서당로 188 1층 (옥수동)",127.01217531,37.54226611,4.3,https://img1.kakaocdn.net/cthumb/local/R0x420.q50/?fname=http%3A%2F%2Ft1.daumcdn.net%2Flocal%2FkakaomapPhoto%2Freview%2F23fa98384c07eae344aa09479919b95391a1e9cf%3Foriginal,NULL
22,"왓어브레드 용산점",용산/이태원/한남,베이커리,"서울 용산구 한강대로15길 19-19 해운빌딩 1층 (한강로3가)",126.96282618,37.52534729,0,https://via.placeholder.com/150,NULL
23,야키토리슈츠,용산/이태원/한남,일식,"서울 용산구 한강대로 153 1층 (한강로2가)",126.9711178,37.53292524,4,https://img1.kakaocdn.net/cthumb/local/R0x420.q50/?fname=https%3A%2F%2Fpostfiles.pstatic.net%2FMjAyNDEwMDRfMTUx%2FMDAxNzI4MDQ4NDE5NjIy.TQG-INDKavDt_WIT_V-0o6Ydvnbz3gTrDx7ZauK-kpgg.ucIR_FVA61lX4SI0YH6AYvHS0sT9IMQ_VjU41sLnpW8g.JPEG%2FIMG_9489.jpg%3Ftype%3Dw966,NULL
24,"르프리크 용산",용산/이태원/한남,버거,"서울 용산구 한강대로 37 에피소드 용산 1층 104,105호 (한강로3가)",126.9630889,37.5248248,4,https://img1.kakaocdn.net/cthumb/local/R0x420.q50/?fname=http%3A%2F%2Ft1.daumcdn.net%2Flocal%2FkakaomapPhoto%2Freview%2F5923062dea968808e07b2e11f3f542d96a415e1a%3Foriginal,NULL
25,다웃풀클럽,종로/중구,칵테일바,"서울 중구 다산로35길 37 (신당동)",127.01379068,37.56434398,4.1,https://img1.kakaocdn.net/cthumb/local/R0x420.q50/?fname=http%3A%2F%2Ft1.daumcdn.net%2Flocal%2FkakaomapPhoto%2Freview%2F88ee6d072efb2e9d21bedbe65bb01d3d876b7b18%3Foriginal,NULL
26,무이로커피,성북/노원/중랑,카페,"서울 노원구 동일로186길 77-7 명문빌딩 1층 (공릉동)",127.07702578,37.62576367,0,https://via.placeholder.com/150,NULL
27,플랫커피,성북/노원/중랑,카페,"서울 노원구 공릉로39길 20 1층 101호 (공릉동)",127.0783242,37.62382389,0,https://via.placeholder.com/150,NULL
28,메트로폴리스,성북/노원/중랑,카페,"서울 노원구 동일로178길 11-9 1층 (공릉동)",127.07507761,37.62150146,0,https://via.placeholder.com/150,NULL
29,너디블루버로우,건대/성수/왕십리,카페,"서울 성동구 고산자로12길 15 1층 (행당동)",127.03596854,37.55970458,0,https://via.placeholder.com/150,NULL
30,너디블루,회기/청량리,카공카페,"서울 동대문구 전농로36길 9 1,2층 1,2호 (전농동)",127.05292749,37.58542701,0,https://via.placeholder.com/150,NULL
31,마그넷,종로/중구,와인바,"서울 종로구 사직로12길 19-12 1,2층 (내자동)",126.97140032,37.57523977,4.4,https://img1.kakaocdn.net/cthumb/local/R0x420.q50/?fname=http%3A%2F%2Ft1.daumcdn.net%2Fplace%2F11382E6E9318428AB5695D33B789948C,NULL
32,참제철,종로/중구,칵테일바,"서울 종로구 사직로 133-10 4층 (적선동)",126.97344663,37.5763755,4.2,https://img1.kakaocdn.net/cthumb/local/R0x420.q50/?fname=http%3A%2F%2Ft1.kakaocdn.net%2Fmystore%2F4DFEFD92CA1445C9A51A032CDC1CD586,NULL
33,내자상회,종로/중구,카페,"서울 종로구 사직로10길 3 1층 (내자동)",126.97048542,37.57578374,0,https://via.placeholder.com/150,NULL
34,워킹어라운드,종로/중구,카페,"서울 종로구 필운대로 51 1층 (옥인동)",126.96845473,37.58070625,0,https://via.placeholder.com/150,NULL
35,세밀,건대/성수/왕십리,양식,"서울 성동구 성수일로4길 48-2 1층 (성수동2가)",127.05410097,37.54233363,3.6,https://img1.kakaocdn.net/cthumb/local/R0x420.q50/?fname=http%3A%2F%2Ft1.daumcdn.net%2Flocal%2FkakaomapPhoto%2Freview%2F3c125fca5ba982bc92b02713fb0db50a63dab6d6%3Foriginal,NULL
36,베이크모굴,건대/성수/왕십리,베이커리,"서울 성동구 서울숲2길 17 1-2층 (성수동1가)",127.0405931,37.5472585,0,https://via.placeholder.com/150,NULL
37,시냅스,건대/성수/왕십리,칵테일바,"서울 성동구 뚝섬로 341-18 2층 (성수동1가)",127.04854195,37.54093049,4.4,https://img1.kakaocdn.net/cthumb/local/R0x420.q50/?fname=http%3A%2F%2Ft1.kakaocdn.net%2Ffiy_reboot%2Fplace%2FBEE637EDFFFA42A1BB1068BC9788B768,NULL
38,참새의집,잠실/송파/강동,양식,"서울 송파구 송파대로43길 9 1층 (석촌동)",127.10689324,37.50383927,5,https://img1.kakaocdn.net/cthumb/local/R0x420.q50/?fname=https%3A%2F%2Fpostfiles.pstatic.net%2FMjAyNDA5MjlfMTQ4%2FMDAxNzI3NTkzMTYxOTI3.UY20xONWRp1WeiBKac-2vToG90GxM7HLtpDFRSwj1fEg.m0emukaFv-PlMOpmN0inPMvyQtdYmDuL4WSeZrZR1xYg.JPEG%2FIMG_5132.jpg%3Ftype%3Dw773,NULL
39,"카페 오비스포",성북/노원/중랑,카페,"서울 성북구 안암로3길 41 윤호빌딩 1층 (보문동7가)",127.02279175,37.58067583,0,https://via.placeholder.com/150,NULL
40,"클로리스 신촌점",신촌/연희,카페,"서울 서대문구 연세로4길 38 (창천동)",126.93874867,37.55778406,0,https://via.placeholder.com/150,NULL
41,독수리다방,신촌/연희,카페,"서울 서대문구 연세로 36 독수리빌딩 8층 (창천동)",126.93723126,37.55878157,0,https://via.placeholder.com/150,NULL
42,또또,신촌/연희,호프집,"서울 서대문구 홍제천로6길 2 1층 (연희동)",126.92482105,37.57362633,4.7,https://img1.kakaocdn.net/cthumb/local/R0x420.q50/?fname=http%3A%2F%2Ft1.daumcdn.net%2Flocal%2FkakaomapPhoto%2Freview%2F417ca4b7382491a5cd8f9d1e4ba8c193c5bcf452%3Foriginal,NULL
43,"비전스트롤 연희점",신촌/연희,카페,"서울 서대문구 연희로11길 57 1층 2호 (연희동)",126.92873328,37.56886069,0,https://via.placeholder.com/150,NULL
44,연희사과,신촌/연희,카페,"서울 서대문구 홍제천로 200-5 (연희동)",126.93522635,37.57898801,0,https://via.placeholder.com/150,NULL
45,"히메지 2호점",신촌/연희,일식,"서울 서대문구 연희로11길 41 1층 (연희동)",126.92927268,37.56823032,3.4,https://img1.kakaocdn.net/cthumb/local/R0x420.q50/?fname=http%3A%2F%2Ft1.daumcdn.net%2Flocal%2FkakaomapPhoto%2Freview%2Fcbfa9f94497d198c5c544672039a173aec8b9d50%3Foriginal,NULL
46,카페사루,종로/중구,카페,"서울 중구 동호로12길 53 (신당동)",127.01160739,37.55756872,0,https://via.placeholder.com/150,NULL
47,사우스사이드팔러,용산/이태원/한남,양식,"서울 용산구 녹사평대로 218 4층 (이태원동)",126.98704709,37.53711951,4.2,https://img1.kakaocdn.net/cthumb/local/R0x420.q50/?fname=http%3A%2F%2Ft1.daumcdn.net%2Fplace%2F6B71BF7419FC414EA6CFC80770A45D8C,NULL
48,히코,구로/관악/동작,카공카페,"서울 관악구 남부순환로 1746-1 2층 (봉천동)",126.94408837,37.4819583,4.6,https://img1.kakaocdn.net/cthumb/local/R0x420.q50/?fname=http%3A%2F%2Ft1.kakaocdn.net%2Fmystore%2F3BBF46DBD90F4D1485CAFD1474D9692C,"귀여운 강아쥐가 있는 분좋카.. 근데 대기 손님있으면 2시간 이용제한 있다는게 함정."
49,스위츠플래닛,강남,베이커리,"서울 강남구 선릉로131길 23 1층 (논현동)",127.0391018,37.51722323,0,https://via.placeholder.com/150,NULL
50,피에트라,홍대/합정/마포,베이커리,"서울 마포구 성미산로23길 62 (연남동)",126.92003386,37.56614493,0,https://via.placeholder.com/150,NULL
51,커피몽타주,강동/고덕,카페,"서울 강동구 올림픽로48길 23-12 1층 (성내동)",127.12187708,37.52947091,0,https://via.placeholder.com/150,NULL
52,"커피리브레 연남점",홍대/합정/마포,카페,"서울 마포구 성미산로32길 20-5 1,2층 (연남동)",126.92373092,37.56364261,0,https://via.placeholder.com/150,NULL
53,"프릳츠 도화점",홍대/합정/마포,카페,"서울 마포구 새창로2길 17 (도화동)",126.94907275,37.54101958,0,https://via.placeholder.com/150,NULL
54,딥블루레이크,홍대/합정/마포,카페,"서울 마포구 포은로6길 11 (망원동)",126.90568087,37.55581612,0,https://via.placeholder.com/150,NULL
55,나무사이로,종로/중구,카페,"서울 종로구 사직로8길 21 1층 (내자동)",126.97099754,37.57464501,0,https://via.placeholder.com/150,NULL
56,멘토부,건대/성수/왕십리,일식,"서울 성동구 상원길 80 동아그린아파트 1층 103호 (성수동1가)",127.0476612,37.5509031,0,https://via.placeholder.com/150,NULL
57,커피출판사,종로/중구,카공카페,"서울 중구 중림로7길 27 1층 (중림동)",126.96845953,37.55857059,0,https://via.placeholder.com/150,NULL
58,에이라운드,종로/중구,카공카페,"서울 종로구 창경궁로 263 1,2층 (명륜2가)",127.00030342,37.58487666,0,https://via.placeholder.com/150,NULL
59,동백가옥,용산/이태원/한남,한식,"서울 용산구 한강대로54길 20-1 1층 (한강로2가)",126.97271552,37.53238501,4.3,https://img1.kakaocdn.net/cthumb/local/R0x420.q50/?fname=https%3A%2F%2Fpostfiles.pstatic.net%2FMjAyMzA5MDhfNDIg%2FMDAxNjk0MTQwNjQ1NTM1.VtYoZxw8l1PnoF4_Z8FDHQ-gz8qvHu85elBM9aA8JYog.jJyLwHvC_a1xIE6sXGQDtUOgQiVJILf2bLQjYoaVsWcg.JPEG.yumi770808%2FIMG_2748.JPG%3Ftype%3Dw580,NULL
60,카페더띤뚜,구로/관악/동작,카페,"서울 관악구 관악로16길 41 지하1층 (봉천동)",126.95493459,37.47984737,0,https://via.placeholder.com/150,NULL
61,"홍곱창 서울대점",구로/관악/동작,한식,"서울 관악구 봉천로 489 (봉천동)",126.95436351,37.48190866,0,https://via.placeholder.com/150,NULL
62,"뱅뱅막국수 역삼본점",강남,한식,"서울 강남구 도곡로 112 서한빌딩 1층 103호 (도곡동)",127.03279148,37.48967601,4.4,https://img1.kakaocdn.net/cthumb/local/R0x420.q50/?fname=http%3A%2F%2Ft1.kakaocdn.net%2Ffiy_reboot%2Fplace%2F8EA1AA83EEDF4D26BF258C0BF647F27B,NULL
63,청담도로공원,강남,카페,"서울 강남구 삼성동 80",127.06341509,37.52015716,0,https://via.placeholder.com/150,NULL
64,채그로,홍대/합정/마포,카페,"서울 마포구 마포대로4다길 31 아리수빌딩 8층 (마포동)",126.94427458,37.53567629,0,https://via.placeholder.com/150,NULL
65,DDP잔디언덕,종로/중구,카페,"서울 중구 을지로 281 (을지로7가)",127.00962114,37.566341,0,https://via.placeholder.com/150,NULL
66,흥인지문공원,종로/중구,카페,"서울 종로구 종로 285 (종로6가)",127.00921434,37.57193442,0,https://via.placeholder.com/150,NULL
67,낙산공원,종로/중구,카페,"서울 종로구 낙산길 41 (동숭동)",127.00752176,37.58056967,0,https://via.placeholder.com/150,NULL
68,바람산어린이공원,신촌/연희,카페,"서울 서대문구 창천동 4-54",126.94021507,37.55824252,0,https://via.placeholder.com/150,NULL
69,성수구름다리,건대/성수/왕십리,카페,"서울 성동구 성수동1가 642-13",127.04231699,37.53802806,0,https://via.placeholder.com/150,NULL
70,남산서울타워,용산/이태원/한남,카페,"서울 용산구 용산동2가 산 1-3",126.98820799,37.55127614,0,https://via.placeholder.com/150,NULL
71,서래섬,서초,카페,"서울 서초구 반포동 137-41 한강둔치반포지구",126.98992942,37.50802101,0,https://via.placeholder.com/150,NULL
72,양화대교,홍대/합정/마포,카페,"서울 마포구 합정동 355-26",126.90529255,37.54429745,0,https://via.placeholder.com/150,NULL
73,노들섬,용산/이태원/한남,카페,"서울 용산구 양녕로 445 (이촌동)",126.95803386,37.51766194,0,https://via.placeholder.com/150,NULL
74,선유교,영등포/여의도/강서,카페,"서울 영등포구 양화동",126.89688851,37.54340743,0,https://via.placeholder.com/150,NULL
75,선유교,영등포/여의도/강서,카페,"서울 영등포구 양화동",126.89688851,37.54340743,0,https://via.placeholder.com/150,NULL
76,더로열푸드앤드링크,용산/이태원/한남,카페,"서울 용산구 신흥로20길 37 1층 (후암동)",126.98397642,37.54717429,0,https://via.placeholder.com/150,NULL
77,하늘공원,홍대/합정/마포,카페,"서울 마포구 상암동 481-72",126.88688383,37.5685397,0,https://via.placeholder.com/150,NULL
78,"씨티보이 삼각지",용산/이태원/한남,호프집,"서울 용산구 한강대로 162-2 1층 (한강로1가)",126.97223999,37.53331474,4,https://img1.kakaocdn.net/cthumb/local/R0x420.q50/?fname=https%3A%2F%2Fpostfiles.pstatic.net%2FMjAyNDEwMDRfMTA2%2FMDAxNzI4MDIyOTIzNjQ0.uftAbrluS1Q3sX1gJ84xAc3rbKODG0LoQeVgsGrsExkg.QDdDLKbm8okmuTjk5uDqU4FbVmoxhpsC7sPxRLn43ygg.JPEG%2F20240609%25EF%25BC%25BF183310.jpg%3Ftype%3Dw966,NULL
79,풀무질,용산/이태원/한남,카페,"서울 용산구 신흥로 82 1층 (용산동2가)",126.98630787,37.5453798,0,https://via.placeholder.com/150,NULL
80,오아시스,잠실/송파/강동,카공카페,"서울 송파구 삼학사로3길 6 1층 (삼전동)",127.09602133,37.49938322,0,https://via.placeholder.com/150,NULL
81,"야키토리 혼바",용산/이태원/한남,카페,"서울 용산구 후암로 79 1층 (동자동)",126.97642907,37.55285562,0,https://via.placeholder.com/150,NULL
82,포노부오노,강남,카페,"서울 강남구 도산대로45길 8-7 2층 (신사동)",127.0363876,37.5230671,0,https://via.placeholder.com/150,NULL
83,"나우 남영",용산/이태원/한남,카페,"서울 용산구 원효로89길 23 2층 (원효로1가)",126.96772591,37.54073603,0,https://via.placeholder.com/150,NULL
84,도량,종로/중구,카페,"서울 종로구 자하문로6길 6 백송빌딩 2층 (통의동)",126.97250418,37.57796824,0,https://via.placeholder.com/150,NULL
85,을지로보석,종로/중구,카페,"서울 중구 마른내로 11-10 3층 (저동2가)",126.98924714,37.56514078,0,https://via.placeholder.com/150,NULL
86,"경동시장 안동집",회기/청량리,카페,"서울 동대문구 고산자로36길 3 경동시장 신관 지하1층 8-2호 (제기동)",127.03941072,37.57975964,0,https://via.placeholder.com/150,NULL
87,본연,강남,카페,"서울 강남구 논현로 742 파티오나인 7층 (논현동)",127.0292227,37.51828387,0,https://via.placeholder.com/150,NULL
88,남영탉,용산/이태원/한남,카페,"서울 용산구 한강대로80길 12 1층 (남영동)",126.97349937,37.54254127,0,https://via.placeholder.com/150,NULL
89,"디핀 서울",종로/중구,카페,"서울 중구 퇴계로 411 1층 (흥인동)",127.01722737,37.56578963,0,https://via.placeholder.com/150,NULL
90,"즐거운 술상",창동/도봉산,카페,"서울 도봉구 노해로 341 (창동)",127.04591228,37.65144353,0,https://via.placeholder.com/150,NULL
91,"비아톨레도 파스타바",용산/이태원/한남,카페,"서울 용산구 원효로83길 7-2 1층 (원효로1가)",126.96775223,37.54004407,0,https://via.placeholder.com/150,NULL
92,군몽,용산/이태원/한남,카페,"서울 용산구 한남대로27가길 15 2층 (한남동)",127.00290899,37.53738598,0,https://via.placeholder.com/150,NULL
93,마마리마켓,건대/성수/왕십리,카페,"서울 성동구 연무장18길 16 1층 (성수동2가)",127.06199885,37.53931861,0,https://via.placeholder.com/150,NULL
94,부토,용산/이태원/한남,카페,"서울 용산구 한남대로27가길 32 지하2층 (한남동)",127.00255712,37.53808967,0,https://via.placeholder.com/150,NULL
95,"카사데타코 신논현점",강남,카페,"서울 강남구 봉은사로1길 8 (논현동)",127.02508059,37.50549777,0,https://via.placeholder.com/150,NULL
96,고씨네고추장찌개,종로/중구,카페,"서울 중구 수표로 26 1층 (저동2가)",126.99037923,37.56350106,0,https://via.placeholder.com/150,NULL
97,"디핀 옥수",건대/성수/왕십리,카페,"서울 성동구 독서당로 194 지하 1층 (옥수동)",127.0126642,37.54269133,0,https://via.placeholder.com/150,NULL
98,대엽,건대/성수/왕십리,카페,"서울 성동구 왕십리로2길 36 1층 3호 (성수동1가)",127.04854304,37.54259734,0,https://via.placeholder.com/150,NULL
99,와일드플라워,서초,카페,"서울 서초구 방배로26길 19 1층 (방배동)",126.99390759,37.4894101,0,https://via.placeholder.com/150,NULL
100,방아실,건대/성수/왕십리,카페,"서울 성동구 왕십리로2길 38 1층 (성수동1가)",127.04881459,37.5425792,0,https://via.placeholder.com/150,NULL
101,"소셜다이닝 피델리오",홍대/합정/마포,카페,"서울 마포구 월드컵로19길 31-1 3층 (망원동)",126.9079554,37.55603235,0,https://via.placeholder.com/150,NULL
102,에다마메,용산/이태원/한남,카페,"서울 용산구 한강대로76길 11-40 (남영동)",126.973711,37.5424341,0,https://via.placeholder.com/150,NULL
103,넛츠비어,건대/성수/왕십리,카페,"서울 성동구 뚝섬로 356 1층 (성수동1가)",127.05022724,37.53992967,0,https://via.placeholder.com/150,NULL
104,참치논데,건대/성수/왕십리,카페,"서울 광진구 능동로37길 35 2층 (중곡동)",127.07788909,37.55851127,0,https://via.placeholder.com/150,NULL
105,논데,종로/중구,카페,"서울 종로구 종로18길 37 하이뷰디아트 2층 (관수동)",126.99149918,37.56866386,0,https://via.placeholder.com/150,NULL
106,스낵바논데,건대/성수/왕십리,카페,"서울 성동구 왕십리로 58 1층 108호 (성수동1가)",127.04520505,37.54268876,0,https://via.placeholder.com/150,NULL
107,모던오뎅,강남,카페,"서울 강남구 도산대로17길 10 (신사동)",127.0249314,37.51937687,0,https://via.placeholder.com/150,NULL
108,블그레,강남,카페,"서울 강남구 논현로175길 101-4 4층 (신사동)",127.02102514,37.52248428,0,https://via.placeholder.com/150,NULL
109,아타리,건대/성수/왕십리,카페,"서울 성동구 성덕정19길 13 1층 (성수동2가)",127.05666367,37.53755713,0,https://via.placeholder.com/150,NULL
110,"도시곳간 2호점",건대/성수/왕십리,카페,"서울 광진구 능동로 18 이튼타워리버3차 지하 1층 04,05호 (자양동)",127.06804216,37.5331182,0,https://via.placeholder.com/150,NULL
111,휘뚜루,건대/성수/왕십리,카페,"서울 성동구 왕십리로2길 38 1층 (성수동1가)",127.04874105,37.54259725,0,https://via.placeholder.com/150,NULL
112,포그,홍대/합정/마포,카페,"서울 마포구 백범로16안길 15-1 1층 (대흥동)",126.94299009,37.54649037,0,https://via.placeholder.com/150,NULL
113,"소금집델리 성수피치스도원점",건대/성수/왕십리,카페,"서울 성동구 연무장3길 9 가동 1층 (성수동2가)",127.05133709,37.54466395,0,https://via.placeholder.com/150,NULL
114,"미미옥 강남 신논현점",강남,카페,"서울 강남구 봉은사로4길 24 1층 (역삼동)",127.02643925,37.5032855,0,https://via.placeholder.com/150,NULL
115,라까예,종로/중구,카페,"서울 중구 퇴계로85길 42 1층 (황학동)",127.01975197,37.56762637,0,https://via.placeholder.com/150,NULL
116,깃든,미아/수유/북한산,카페,"서울 강북구 월계로7나길 46-5 1층 (미아동)",127.03167568,37.61326894,0,https://via.placeholder.com/150,NULL
117,"더 시옷",종로/중구,카페,"서울 중구 수표로 30 OK빌딩 2층 (저동2가)",126.99038824,37.56383624,0,https://via.placeholder.com/150,NULL
118,아오리토리,홍대/합정/마포,카페,"서울 마포구 와우산로29길 8 KC빌딩 1층 (서교동)",126.92950502,37.5547047,0,https://via.placeholder.com/150,NULL
119,사브서울,강남,카페,"서울 강남구 논현로175길 6 지하1층 (신사동)",127.0279226,37.52636708,0,https://via.placeholder.com/150,NULL
120,에스콘디도,용산/이태원/한남,카페,"서울 용산구 한남대로20길 61-7 지하1층 (한남동)",127.01055621,37.53512854,0,https://via.placeholder.com/150,NULL
121,잭잭,용산/이태원/한남,카페,"서울 용산구 회나무로6길 21 1층 (이태원동)",126.98887765,37.53800628,0,https://via.placeholder.com/150,NULL
122,제이드앤워터,건대/성수/왕십리,카페,"서울 성동구 한림말3길 29 2층 201호 (옥수동)",127.01533258,37.54366049,0,https://via.placeholder.com/150,NULL
123,"소금집델리 망원",홍대/합정/마포,카페,"서울 마포구 월드컵로19길 14 2층 (망원동)",126.90823623,37.55682365,0,https://via.placeholder.com/150,NULL
124,엘몰리노,건대/성수/왕십리,카페,"서울 성동구 서울숲2길 19-18 1층 (성수동1가)",127.04116919,37.547434,0,https://via.placeholder.com/150,NULL
125,"잭잭 강남점",서초,카페,"서울 서초구 서운로 138 1층 (서초동)",127.02527645,37.49601734,0,https://via.placeholder.com/150,NULL
126,"이도 용산",용산/이태원/한남,카페,"서울 용산구 한강대로50길 14 다리빌딩 1층 101,102호 (한강로2가)",126.97151423,37.53173781,0,https://via.placeholder.com/150,NULL
127,"미미옥 신용산점",용산/이태원/한남,카페,"서울 용산구 한강대로15길 27 (한강로3가)",126.96295242,37.52628438,0,https://via.placeholder.com/150,NULL
128,마늘집,홍대/합정/마포,카페,"서울 마포구 양화로3길 15 2층 201호 (합정동)",126.91148041,37.54964247,0,https://via.placeholder.com/150,NULL
129,"소금집델리 현대백화점 무역센터점",강남,카페,"서울 강남구 테헤란로 517 지하1층 (삼성동)",127.05992526,37.50874146,0,https://via.placeholder.com/150,NULL
130,"버거보이 신용산점",용산/이태원/한남,카페,"서울 용산구 한강대로15길 29 1층 (한강로3가)",126.96287095,37.52632039,0,https://via.placeholder.com/150,NULL
131,"소금집델리 안국",종로/중구,카페,"서울 종로구 북촌로4길 19 신영빌딩 1층 103호 (계동)",126.9862337,37.57945728,0,https://via.placeholder.com/150,NULL
132,"버거보이 성수낙낙점",건대/성수/왕십리,카페,"서울 성동구 아차산로17길 48 SK V1센터 1층 R113호 (성수동2가)",127.06588155,37.54639115,0,https://via.placeholder.com/150,NULL
133,"코치 성수점",건대/성수/왕십리,카페,"서울 성동구 성덕정17길 11 1층 (성수동2가)",127.05515929,37.53818494,0,https://via.placeholder.com/150,NULL
134,이야이야앤프렌즈,강남,카페,"서울 강남구 도산대로51길 22 2층 (신사동)",127.03798678,37.52449919,0,https://via.placeholder.com/150,NULL
135,"뽁식당 신촌점",신촌/연희,카페,"서울 서대문구 연세로5나길 24 1~4층 (창천동)",126.93485149,37.55706118,0,https://via.placeholder.com/150,NULL
136,로기,용산/이태원/한남,카페,"서울 용산구 한남대로27가길 32 1층 201호 (한남동)",127.00255713,37.53809328,0,https://via.placeholder.com/150,NULL
137,네기우나기야,잠실/송파/강동,카페,"서울 송파구 잠실로 209 2층 (신천동)",127.10688394,37.51397467,0,https://via.placeholder.com/150,NULL
138,윰드,강남,카페,"서울 강남구 도산대로58길 18 (청담동)",127.04118805,37.5220573,0,https://via.placeholder.com/150,NULL
139,불끈,홍대/합정/마포,카페,"서울 마포구 토정로35길 11 인우빌딩 지하1층 B01호 (용강동)",126.94392701,37.54050458,0,https://via.placeholder.com/150,NULL
140,달리아다이닝,강남,카페,"서울 강남구 도산대로45길 14 (신사동)",127.03574739,37.52322137,0,https://via.placeholder.com/150,NULL
141,네기다이닝라운지,강남,카페,"서울 강남구 도산대로15길 18 4층 (신사동)",127.02402195,37.51946535,0,https://via.placeholder.com/150,NULL
142,"가야가야 이대점",신촌/연희,카페,"서울 서대문구 이화여대5길 7-3 1층 (대현동)",126.94540771,37.55817656,0,https://via.placeholder.com/150,NULL
143,에이넷,강남,카페,"서울 강남구 논현로159길 46-6 (신사동)",127.02447992,37.52243857,0,https://via.placeholder.com/150,NULL
144,트리플본국밥,잠실/송파/강동,카페,"서울 송파구 법원로11길 11 문정현대지식산업센터1-1 A동 1층 107호 (문정동)",127.11785334,37.48514377,0,https://via.placeholder.com/150,NULL
145,리북방,홍대/합정/마포,카페,"서울 마포구 마포대로1길 16 A&D빌딩 2층 (용강동)",126.94314233,37.53972845,0,https://via.placeholder.com/150,NULL
146,"네기스키야키 압구정점",강남,카페,"서울 강남구 논현로 854 지하 1층 (신사동)",127.02887367,37.52545684,0,https://via.placeholder.com/150,NULL
147,"네기스키야키 광화문점",종로/중구,카페,"서울 종로구 새문안로2길 10 지하1층 104호 (신문로2가)",126.97198237,37.56870229,0,https://via.placeholder.com/150,NULL
148,"남영동 양문 본점",용산/이태원/한남,카페,"서울 용산구 한강대로81길 8 1층 (갈월동)",126.97189237,37.54310853,0,https://via.placeholder.com/150,NULL
149,네기라이브,건대/성수/왕십리,카페,"서울 성동구 성수이로 97 (성수동2가)",127.05657776,37.54365153,0,https://via.placeholder.com/150,NULL
150,식당네오,잠실/송파/강동,카페,"서울 송파구 삼전로12길 4 101호 (삼전동)",127.09038893,37.50639749,0,https://via.placeholder.com/150,NULL
151,"야키토리 코치",영등포/여의도/강서,카페,"서울 영등포구 영중로10길 32-4 지하 1층 (영등포동3가)",126.90843716,37.51838714,0,https://via.placeholder.com/150,NULL
152,오쁘띠베르,종로/중구,카페,"서울 종로구 자하문로 47-1 (통인동)",126.97097952,37.58026,0,https://via.placeholder.com/150,NULL
153,야키토리묵,홍대/합정/마포,카페,"서울 마포구 성미산로 165-1 1층 (연남동)",126.92458445,37.56465768,0,https://via.placeholder.com/150,NULL
154,"야키토리묵 신사점",강남,카페,"서울 강남구 강남대로152길 23 지하1층 101호 (신사동)",127.02123872,37.51769271,0,https://via.placeholder.com/150,NULL
155,나카지마고에몽,영등포/여의도/강서,카페,"서울 영등포구 국회대로54길 10 아크로타워스퀘어 상가동 지하1층 39호 (영등포동7가)",126.90625254,37.52407256,0,https://via.placeholder.com/150,NULL
156,에빗,강남,카페,"서울 강남구 도산대로45길 10-5 LS빌딩 1층 101호 (신사동)",127.03623391,37.5233834,0,https://via.placeholder.com/150,NULL
157,윤서울,강남,카페,"서울 강남구 선릉로 805 W빌딩 1층 (신사동)",127.03898323,37.52412135,0,https://via.placeholder.com/150,NULL
158,"천하제일솥뚜껑 명동점",종로/중구,카페,"서울 중구 명동3길 21 3층 (을지로2가)",126.98344411,37.56461213,0,https://via.placeholder.com/150,NULL
159,"천하제일솥뚜껑 성수점",건대/성수/왕십리,카페,"서울 성동구 성수이로7길 27 서울숲코오롱디지털타워2차 1층 105-1호 (성수동2가)",127.05369641,37.54150039,0,https://via.placeholder.com/150,NULL
160,조광201,잠실/송파/강동,카페,"서울 송파구 새말로8길 13 2층 (문정동)",127.12678749,37.48155031,0,https://via.placeholder.com/150,NULL
161,중앙감속기,건대/성수/왕십리,카페,"서울 성동구 성수일로6길 7-1 1층 (성수동2가)",127.05108424,37.54557497,0,https://via.placeholder.com/150,NULL
162,트리드,강남,카페,"서울 강남구 선릉로162길 16 2층 (청담동)",127.04168838,37.5267063,0,https://via.placeholder.com/150,NULL
163,쵸이닷,강남,카페,"서울 강남구 도산대로 457 앙스돔빌딩 3층 (청담동)",127.04655154,37.52441594,0,https://via.placeholder.com/150,NULL
164,진진,홍대/합정/마포,카페,"서울 마포구 월드컵북로1길 60 1층 (서교동)",126.91845252,37.55376325,0,https://via.placeholder.com/150,NULL
165,파브리키친,용산/이태원/한남,카페,"서울 용산구 한강대로15길 23-6 1층 (한강로3가)",126.96283147,37.52608612,0,https://via.placeholder.com/150,NULL
166,터치더스카이,영등포/여의도/강서,카페,"서울 영등포구 63로 50 63빌딩 58층 (여의도동)",126.94022306,37.51989236,0,https://via.placeholder.com/150,NULL
167,"티엔미미 홍대점",홍대/합정/마포,카페,"서울 마포구 양화로 144 머큐어 앰배서더 호텔 홍대 4층 (동교동)",126.92238583,37.55533994,0,https://via.placeholder.com/150,NULL
168,"티엔미미 강남점",서초,카페,"서울 서초구 사임당로 143 Cross143 1층 104-1호 (서초동)",127.0252366,37.49185109,0,https://via.placeholder.com/150,NULL
169,홍보각,강남,카페,"서울 강남구 봉은사로 130 LL층 (역삼동)",127.02891905,37.50527524,0,https://via.placeholder.com/150,NULL
170,조광101,잠실/송파/강동,카페,"서울 송파구 새말로10길 8 1층 (문정동)",127.12730873,37.48223451,0,https://via.placeholder.com/150,NULL
171,"소금집델리 센터필드점",강남,카페,"서울 강남구 테헤란로 231 센터필드 EAST 2층 E208호 (역삼동)",127.04142667,37.50351275,0,https://via.placeholder.com/150,NULL
172,모을,홍대/합정/마포,카페,"서울 마포구 월드컵로19길 71 3층 (망원동)",126.90719469,37.55434689,0,https://via.placeholder.com/150,NULL
173,멜랑,마곡/김포,카공카페,"서울 강서구 화곡로 186-12 화곡갤럭시오피스텔 1층 101호 (화곡동)",126.84236875,37.54203899,0,https://via.placeholder.com/150,NULL
174,"조양마트 조양시장점",건대/성수/왕십리,카페,"서울 광진구 아차산로30길 39 (자양동)",127.06716505,37.53911576,0,https://via.placeholder.com/150,NULL
175,"벱 한남점",용산/이태원/한남,아시안,"서울 용산구 이태원로54가길 23 지층 (한남동)",127.00145278,37.53669134,4.5,https://img1.kakaocdn.net/cthumb/local/R0x420.q50/?fname=http%3A%2F%2Ft1.kakaocdn.net%2Fmystore%2F959CB6A6A666412C9F3AB1DD0EAAC31D,NULL
176,"딥아트먼트 스토어",홍대/합정/마포,카페,"서울 마포구 와우산로 162-4 3층 (서교동)",126.93071552,37.55518475,0,https://via.placeholder.com/150,NULL
177,파브리키친,용산/이태원/한남,양식,"서울 용산구 한강대로15길 23-6 1층 (한강로3가)",126.96283034,37.52608612,4.1,https://img1.kakaocdn.net/cthumb/local/R0x420.q50/?fname=https%3A%2F%2Ft1.daumcdn.net%2Flocal%2Fbooking%2Freview%2FE0B4AF826D324DFCA0E3844837D34FC5,NULL
178,포노부오노,강남,양식,"서울 강남구 도산대로45길 8-7 2층 (신사동)",127.03638987,37.5230662,4.3,https://img1.kakaocdn.net/cthumb/local/R0x420.q50/?fname=http%3A%2F%2Ft1.daumcdn.net%2Flocal%2FkakaomapPhoto%2Freview%2F37bfbc66ae8d6586496e9c79d62995fe194fc08e%3Foriginal,NULL
179,어트랙트커피,구로/관악/동작,카페,"서울 관악구 봉천로31길 35 1층 101,102호 (봉천동)",126.94016975,37.48464139,0,https://via.placeholder.com/150,NULL
180,남영돈,용산/이태원/한남,한식,"서울 용산구 한강대로80길 17 1층 (남영동)",126.97377539,37.54275036,4,https://img1.kakaocdn.net/cthumb/local/R0x420.q50/?fname=https%3A%2F%2Fpostfiles.pstatic.net%2FMjAyNDExMjRfMjIx%2FMDAxNzMyNDIwMTk1Njk3.nehVV2liADL0tyZ1xf3D9txnG4Ld_pj4IcB04kLI4jgg.xFHjmsS0S-0bRiJ0QOFmM0juInLmu6bQHg9xtcydk3Eg.JPEG%2FSE-08A920F9-BBBF-4928-A98F-D46F2072E399.jpg%3Ftype%3Dw966,NULL
181,스시이젠,용산/이태원/한남,일식,"서울 용산구 한강대로 95 래미안용산 더 센트럴 B동 지하2층 247호 (한강로2가)",126.96721835,37.52928057,3.6,https://img1.kakaocdn.net/cthumb/local/R0x420.q50/?fname=http%3A%2F%2Ft1.daumcdn.net%2Fplace%2FEDB5F90734AF4A86B8A92417FBA78625,NULL
182,고에몽시즈카,영등포/여의도/강서,일식,"서울 영등포구 국회대로50길 20 1층 112호 (영등포동7가)",126.90560862,37.52336205,4.4,https://img1.kakaocdn.net/cthumb/local/R0x420.q50/?fname=http%3A%2F%2Ft1.daumcdn.net%2Flocal%2FkakaomapPhoto%2Freview%2F51d94926d24930e182c7b49fdf6066b32a12595e%3Foriginal,NULL
183,"화목순대국 광화문1호점",종로/중구,한식,"서울 종로구 새문안로5길 11 1층 (당주동)",126.97471628,37.57119686,0,https://via.placeholder.com/150,NULL
184,"농민백암순대 본점",강남,한식,"서울 강남구 선릉로86길 40-4 알앤지타운 1층 (대치동)",127.05300999,37.50370995,4.4,https://img1.kakaocdn.net/cthumb/local/R0x420.q50/?fname=http%3A%2F%2Ft1.daumcdn.net%2Flocal%2FkakaomapPhoto%2Freview%2F2fb1c3296b4585a653257caba1b635e57e4c14ed%3Foriginal,NULL
185,플렉스버거,성북/노원/중랑,버거,"서울 노원구 동일로192길 88 오성빌딩 1층 101호 (공릉동)",127.07751677,37.62732025,0,https://via.placeholder.com/150,NULL
186,하시라,강남,일식,"서울 강남구 도산대로90길 17-4 NAO빌딩 1층 A호 (청담동)",127.04891043,37.5229932,4,https://img1.kakaocdn.net/cthumb/local/R0x420.q50/?fname=https%3A%2F%2Fpostfiles.pstatic.net%2FMjAyNDExMjNfNTcg%2FMDAxNzMyMzQ3NzgwNjgw.NX1CqYgxx8pf-bEoz2r3pcOkJ_GB6E132wXZ0Dtg8g4g.W9exICkVGZN_R7kZbGI7dJK-sdz0_c6Pv2UW1oL87wog.JPEG%2F900%25EF%25BC%25BF20241017%25EF%25BC%25BF191442.jpg%3Ftype%3Dw580,NULL
187,능동미나리,용산/이태원/한남,한식,"서울 용산구 한강대로40길 28 1,2층 (한강로2가)",126.97082021,37.53009241,0,https://via.placeholder.com/150,NULL
188,에버닌스테어스,홍대/합정/마포,카페,"서울 마포구 양화로10길 53 1층 (서교동)",126.91912305,37.55010296,0,https://via.placeholder.com/150,NULL
189,가무,종로/중구,카페,"서울 중구 명동4길 16 2,3,4층 (명동2가)",126.98362443,37.56296693,0,https://via.placeholder.com/150,NULL
190,스탬파,종로/중구,양식,"서울 중구 충무로 21-12 초롱빌딩 1층 (초동)",126.99234415,37.56332822,4.8,https://img1.kakaocdn.net/cthumb/local/R0x420.q50/?fname=http%3A%2F%2Ft1.daumcdn.net%2Flocal%2FkakaomapPhoto%2Freview%2F8383eeac86269315874f11382e433fd0108d092f%3Foriginal,NULL
191,"페이퍼파스타 by을지로그랑블루",종로/중구,양식,"서울 중구 마른내로4길 10 정산빌딩 1층 (인현동1가)",126.99381551,37.56385449,4.7,https://img1.kakaocdn.net/cthumb/local/R0x420.q50/?fname=http%3A%2F%2Ft1.daumcdn.net%2Flocal%2FkakaomapPhoto%2Freview%2F06687f3a4ba2872e51b77d6bd187074fc7381e38%3Foriginal,NULL
192,메종뵈르,종로/중구,양식,"서울 중구 마른내로 50-1 2층 (인현동1가)",126.99338084,37.56424369,3.7,https://img1.kakaocdn.net/cthumb/local/R0x420.q50/?fname=http%3A%2F%2Ft1.kakaocdn.net%2Fmystore%2F4C769275C68A4EF582476BBF86EF43A7,NULL
193,"스탠다드브레드 성수점",건대/성수/왕십리,베이커리,"서울 성동구 성수이로18길 37 1층 (성수동2가)",127.0611295,37.54164544,0,https://via.placeholder.com/150,NULL
194,불필요상점,용산/이태원/한남,카페,"서울 용산구 녹사평대로46길 16-5 지하 1층 (이태원동)",126.98795227,37.53700788,0,https://via.placeholder.com/150,NULL
195,장마가시작될때,용산/이태원/한남,카페,"서울 용산구 회나무로28길 6-3 지하1층 (이태원동)",126.99165866,37.53927872,0,https://via.placeholder.com/150,NULL
196,잔월,성북/노원/중랑,일식,"서울 노원구 동일로192길 38 지하1층 (공릉동)",127.07521845,37.6263703,4.3,https://img1.kakaocdn.net/cthumb/local/R0x420.q50/?fname=http%3A%2F%2Ft1.daumcdn.net%2Flocal%2FkakaomapPhoto%2Freview%2F855ff46fc53807892e01757324069873d0c1c69f%3Foriginal,NULL
197,티는샵,성북/노원/중랑,카페,"서울 노원구 동일로192길 92 (공릉동)",127.07788852,37.62750021,0,https://via.placeholder.com/150,NULL
198,던모스,성북/노원/중랑,베이커리,"서울 노원구 공릉로27길 8 1, 2층 (공릉동)",127.07848471,37.62133706,0,https://via.placeholder.com/150,NULL
199,헤비로테이트,영등포/여의도/강서,카페,"서울 영등포구 도신로19길 22 1층 (도림동)",126.899665,37.50818065,0,https://via.placeholder.com/150,NULL
200,"카페 클로이인패리스",홍대/합정/마포,카페,"서울 마포구 성미산로 190-3 2층 (연남동)",126.92618116,37.56272154,0,https://via.placeholder.com/150,NULL
201,네시사분,홍대/합정/마포,카페,"서울 마포구 성미산로 190-8 1층 (연남동)",126.92588687,37.56273938,0,https://via.placeholder.com/150,NULL
202,어쩌다책방,홍대/합정/마포,카페,"서울 마포구 성미산로 159 1층 102호 (연남동)",126.92382938,37.5647599,0,https://via.placeholder.com/150,NULL
203,유니르,홍대/합정/마포,칵테일바,"서울 마포구 동교로 256-10 (연남동)",126.92517637,37.5624434,4.8,https://img1.kakaocdn.net/cthumb/local/R0x420.q50/?fname=http%3A%2F%2Ft1.daumcdn.net%2Flocal%2FkakaomapPhoto%2Freview%2F805fc40b49dfd8114370d6e6da0366af636824d5%3Foriginal,NULL
204,"윤숲 후르츠산도점",건대/성수/왕십리,베이커리,"서울 광진구 면목로7길 8 1층 (중곡동)",127.07727447,37.55954782,0,https://via.placeholder.com/150,NULL
205,움푹,종로/중구,일식,"서울 중구 충무로4길 19-4 1층 (인현동1가)",126.99410969,37.56516996,3.9,https://img1.kakaocdn.net/cthumb/local/R0x420.q50/?fname=http%3A%2F%2Ft1.daumcdn.net%2Flocal%2FkakaomapPhoto%2Freview%2Fb6f1312975ffb5a8a01d833d1fbbd2ba3aa60f95%3Foriginal,NULL
206,경동교회,종로/중구,카페,"서울 중구 장충단로 204 (장충동1가)",127.00720309,37.56308678,0,https://via.placeholder.com/150,NULL
207,"노아스로스팅 헤리티지점",신촌/연희,카공카페,"서울 서대문구 연희로 160 1층 (연희동)",126.93487969,37.57146632,0,https://via.placeholder.com/150,NULL
208,"알롱지서울 문래점",영등포/여의도/강서,카페,"서울 영등포구 도림로 485-1 3층 (문래동4가)",126.88960456,37.51664472,0,https://via.placeholder.com/150,NULL
209,"현대카드 바이닐앤플라스틱",용산/이태원/한남,카페,"서울 용산구 이태원로 248 1층 (한남동)",127.0008599,37.53680667,0,https://via.placeholder.com/150,NULL
210,잔걸음,연신내/구파발,카페,"서울 은평구 녹번로 51 1층 103호 (녹번동)",126.93017472,37.60592118,0,https://via.placeholder.com/150,NULL
211,알비꼴레또,홍대/합정/마포,양식,"서울 마포구 월드컵로13길 55-15 그랑시엘 2층 202호 (망원동)",126.90687295,37.55461694,5,https://img1.kakaocdn.net/cthumb/local/R0x420.q50/?fname=http%3A%2F%2Ft1.daumcdn.net%2Flocal%2FkakaomapPhoto%2Freview%2Ff1eb25e7586d90a9080fb417cb9b891404ab4293%3Foriginal,NULL
212,라이너스바베큐,용산/이태원/한남,양식,"서울 용산구 녹사평대로32길 15 1층 (이태원동)",126.98969969,37.53367074,3.5,https://img1.kakaocdn.net/cthumb/local/R0x420.q50/?fname=http%3A%2F%2Ft1.kakaocdn.net%2Ffiy_reboot%2Fplace%2F2CB227AB9B7349B59CD76FAAC046D3DA,NULL
213,카사블랑카,용산/이태원/한남,양식,"서울 용산구 신흥로 35 1층 (용산동2가)",126.98712777,37.54163533,4.2,https://img1.kakaocdn.net/cthumb/local/R0x420.q50/?fname=http%3A%2F%2Ft1.daumcdn.net%2Flocal%2FkakaomapPhoto%2Freview%2F8253dd636caaa5630a608224c1e33eef397e7fe8%3Foriginal,NULL
214,"뇨끼테리아 피우 연남점",홍대/합정/마포,양식,"서울 마포구 동교로 212-8 1층 (동교동)",126.92417014,37.55910907,3.4,https://img1.kakaocdn.net/cthumb/local/R0x420.q50/?fname=http%3A%2F%2Ft1.daumcdn.net%2Flocal%2FkakaomapPhoto%2Freview%2F255d696c109a8f085171e225a82af33451a38eb7%3Foriginal,NULL
215,더미쓰리,용산/이태원/한남,카페,"서울 용산구 녹사평대로40길 31 용이빌딩 2층 (이태원동)",126.98759963,37.5347157,0,https://via.placeholder.com/150,NULL
216,뚝방길홍차가게,건대/성수/왕십리,카페,"서울 광진구 자양강변길 277 1층 (자양동)",127.07385444,37.52997922,0,https://via.placeholder.com/150,NULL
217,"통인동커피공방 로스팅라이브러리",신촌/연희,카페,"서울 서대문구 연세로 13 현대백화점 유플렉스 12층 (창천동)",126.93657653,37.55676659,0,https://via.placeholder.com/150,NULL
218,광진교8번가,강동/고덕,카페,"서울 강동구 구천면로 77 (천호동)",127.11418878,37.54450006,0,https://via.placeholder.com/150,NULL
219,피규어뮤지엄W,강남,카페,"서울 강남구 선릉로158길 3 지하2층~5층 (청담동)",127.04038689,37.52578593,0,https://via.placeholder.com/150,NULL
220,"이테르 라클라스",종로/중구,양식,"서울 중구 남대문로5길 15 1층 (북창동)",126.97877586,37.56203273,4.1,https://img1.kakaocdn.net/cthumb/local/R0x420.q50/?fname=http%3A%2F%2Ft1.kakaocdn.net%2Fmystore%2F49DA6579DBCB43839FC379DD1CE40AAA,NULL
221,흥인지문공원,종로/중구,카페,"서울 종로구 종로 285 (종로6가)",127.00921434,37.57193442,0,https://via.placeholder.com/150,NULL
222,재즈바주옥,건대/성수/왕십리,칵테일바,"서울 광진구 구의강변로 64 (구의동)",127.09258322,37.53582974,5,https://img1.kakaocdn.net/cthumb/local/R0x420.q50/?fname=http%3A%2F%2Ft1.daumcdn.net%2Fplace%2FC6F702ED71CA4067929550E1579E5AF4,NULL
223,"아일라 서교",홍대/합정/마포,카공카페,"서울 마포구 월드컵북로5길 13 지하1,1층 (서교동)",126.91807432,37.55705433,0,https://via.placeholder.com/150,NULL
224,오차원,용산/이태원/한남,카페,"서울 용산구 이태원로55가길 15 2층 203호 (한남동)",127.00033944,37.53752387,0,https://via.placeholder.com/150,NULL
225,뜰정,홍대/합정/마포,카페,"서울 마포구 월드컵북로5길 50 1층 (서교동)",126.91611931,37.5564583,0,https://via.placeholder.com/150,NULL
226,채뜰,용산/이태원/한남,카페,"서울 용산구 독서당로20길 1-12 한남센타 1층 (한남동)",127.00954903,37.53347259,0,https://via.placeholder.com/150,NULL
227,테리스,종로/중구,카페,"서울 종로구 지봉로12가길 64 705플랜 2층 201호 (숭인동)",127.01632834,37.57476998,0,https://via.placeholder.com/150,NULL
228,아쿠아,용산/이태원/한남,일식,"서울 용산구 이태원로54길 68-5 (한남동)",127.00092325,37.53532543,4,https://img1.kakaocdn.net/cthumb/local/R0x420.q50/?fname=http%3A%2F%2Ft1.daumcdn.net%2Fplace%2F3155F9E92B2840C7997A7C9BBA327B7A,NULL
229,키보,용산/이태원/한남,일식,"서울 용산구 한강대로50길 17 지층 02호 (한강로2가)",126.97197809,37.53174693,4,https://img1.kakaocdn.net/cthumb/local/R0x420.q50/?fname=https%3A%2F%2Fpostfiles.pstatic.net%2FMjAyNDA3MTlfMjU3%2FMDAxNzIxMzg5ODk1MTk1.mASS-OjZH69TERaDDhrJQWt-PgZyLTG5BbarUMga8_sg.PinWAJrLYJEgKHN4knuOfEKh0EcQZAmMZ6uZR4rHlGkg.JPEG%2FSE-fdd6b347-3f34-11ef-9193-ddd4cd1a873a.jpg%3Ftype%3Dw773,NULL
230,자야,종로/중구,호프집,"서울 중구 충무로 42 1층 (초동)",126.99294615,37.56485995,4.5,https://img1.kakaocdn.net/cthumb/local/R0x420.q50/?fname=http%3A%2F%2Ft1.daumcdn.net%2Flocal%2FkakaomapPhoto%2Freview%2F199b53cb2562a82020f31fde9549e82b53ff5c2f%3Foriginal,NULL
231,호머피자,용산/이태원/한남,버거,"서울 용산구 이태원로42길 19 2층 (한남동)",126.99981444,37.53579395,0,https://via.placeholder.com/150,NULL
232,피자애프터러브,용산/이태원/한남,버거,"서울 용산구 보광로60길 17 1층 (이태원동)",126.99521187,37.53406033,0,https://via.placeholder.com/150,NULL
233,호미곱도리식당,구로/관악/동작,한식,"서울 관악구 장군봉1길 56 우형빌딩 지하1층 11호 (봉천동)",126.9431255,37.48139922,0,https://via.placeholder.com/150,NULL
234,칼스토랑,마곡/김포,한식,"서울 강서구 방화대로6라길 2 1층 (공항동)",126.81855228,37.55512332,4.4,https://img1.kakaocdn.net/cthumb/local/R0x420.q50/?fname=http%3A%2F%2Ft1.daumcdn.net%2Flocal%2FkakaomapPhoto%2Freview%2F88c4b6c3990f132f398bcb8e96d84ea0800b480e%3Foriginal,NULL
235,카페우드진,마곡/김포,카공카페,"서울 강서구 마곡중앙6로 45 리더스퀘어마곡 1층 113호 (마곡동)",126.83272288,37.56058266,0,https://via.placeholder.com/150,NULL
236,크랙커피,성북/노원/중랑,카페,"서울 성북구 보문로23길 7 1층 (보문동5가)",127.01954119,37.58404973,0,https://via.placeholder.com/150,NULL
237,공유,성북/노원/중랑,카페,"서울 성북구 보문로18길 10 1층 (보문동4가)",127.02188191,37.58198785,0,https://via.placeholder.com/150,NULL
238,내음성,성북/노원/중랑,카페,"서울 성북구 보문로25길 11 1층 (보문동2가)",127.01815139,37.58609701,0,https://via.placeholder.com/150,NULL
239,코무(KOMU),성북/노원/중랑,카페,"서울 성북구 고려대로7가길 1 1층 (안암동2가)",127.02110878,37.58640646,0,https://via.placeholder.com/150,NULL
240,"투썸플레이스 서린동청계광장점",종로/중구,카공카페,"서울 종로구 청계천로 17 지하1층, 1~3층 (서린동)",126.97950274,37.56941021,0,https://via.placeholder.com/150,NULL
241,"이디야커피 국립중앙도서관디지털관점",서초,카공카페,"서울 서초구 반포대로 201 (반포동)",127.00363688,37.4982689,0,https://via.placeholder.com/150,NULL
242,"브라운핸즈 창비",홍대/합정/마포,카공카페,"서울 마포구 월드컵로12길 7 1층 (서교동)",126.91145334,37.55530522,0,https://via.placeholder.com/150,NULL
243,"엔제리너스 L7홍대점",홍대/합정/마포,카공카페,"서울 마포구 양화로 141 1,2층 (동교동)",126.92169283,37.55570169,0,https://via.placeholder.com/150,NULL
244,앙떼띠커피로스터리,강남,카공카페,"서울 강남구 영동대로 326 컬쳐랜드 타워 3층 (대치동)",127.06659054,37.50380399,0,https://via.placeholder.com/150,NULL
245,홍릉시험림,회기/청량리,카페,"서울 동대문구 회기로 57 (청량리동)",127.04485333,37.59396455,0,https://via.placeholder.com/150,NULL
246,꽃,홍대/합정/마포,호프집,"서울 마포구 와우산로 162 (서교동)",126.93066566,37.55524599,5,https://img1.kakaocdn.net/cthumb/local/R0x420.q50/?fname=http%3A%2F%2Ft1.daumcdn.net%2Flocal%2FkakaomapPhoto%2Freview%2Fe7661e128242abd3d46bc29cec710d3a03f60c34%3Foriginal,NULL
247,"국방부 군사편찬연구소",용산/이태원/한남,카공카페,"서울 용산구 이태원로 29 용산전쟁기념관 4층 (용산동1가)",126.97718531,37.53713244,0,https://via.placeholder.com/150,NULL
248,트램서울,구로/관악/동작,카공카페,"서울 관악구 남부순환로226길 23-10 황금빌 1층 101호 (봉천동)",126.95422941,37.47932811,0,https://via.placeholder.com/150,NULL
249,비지엠커피,서초,카공카페,"서울 서초구 방배천로2길 51 1층 (방배동)",126.98556515,37.47695022,0,https://via.placeholder.com/150,NULL
250,꽃피다이화다방,신촌/연희,카공카페,"서울 서대문구 이화여대길 75 이화타워8층 (대현동)",126.94429793,37.55903379,0,https://via.placeholder.com/150,NULL
251,"코피티암커피 경복궁점",종로/중구,카공카페,"서울 종로구 자하문로4길 7 (통의동)",126.972681,37.57738083,0,https://via.placeholder.com/150,NULL
252,북쌔즈,강남,카공카페,"서울 강남구 테헤란로 311 아남타워 2층 (역삼동)",127.04486715,37.50373134,0,https://via.placeholder.com/150,NULL
253,"콘하스 디디피점",종로/중구,카공카페,"서울 중구 장충단로 215 1~5층 (광희동2가)",127.00679569,37.56384364,0,https://via.placeholder.com/150,NULL
254,"투썸플레이스 노원구청점",성북/노원/중랑,카공카페,"서울 노원구 노해로 449 덕화빌딩 1,2층 (상계동)",127.05799863,37.65405466,0,https://via.placeholder.com/150,NULL
255,율목커피,서초,카공카페,"서울 서초구 방배천로8길 26 1층 (방배동)",126.98410827,37.48044235,0,https://via.placeholder.com/150,NULL
256,"도화아파트먼트 마포",홍대/합정/마포,카공카페,"서울 마포구 도화2길 27 1층 (도화동)",126.94949015,37.53954212,0,https://via.placeholder.com/150,NULL
257,네마커피,신촌/연희,카공카페,"서울 서대문구 거북골로 208-1 2층 (북가좌동)",126.90830522,37.57902063,0,https://via.placeholder.com/150,NULL
258,"카멜커피 11호점",구로/관악/동작,카공카페,"서울 동작구 양녕로36길 12 1,2층 (상도동)",126.94651613,37.50214559,0,https://via.placeholder.com/150,NULL
259,"더노벰버라운지 청량리그라시엘점",회기/청량리,카공카페,"서울 동대문구 고산자로32길 78 아트포레스트 청량리 1~3층 102,201,202,301,302호 (용두동)",127.042842,37.57758885,0,https://via.placeholder.com/150,NULL
260,umoae,홍대/합정/마포,카공카페,"서울 마포구 양화로6길 99-5 1.5층 (서교동)",126.91982626,37.54861859,0,https://via.placeholder.com/150,NULL
261,"정원이있는국민책방 송파점",잠실/송파/강동,카공카페,"서울 송파구 가락로21길 8 (송파동)",127.11138903,37.50324405,0,https://via.placeholder.com/150,NULL
262,옐로우보울,신촌/연희,양식,"서울 서대문구 충정로 7 구세군빌딩 지하1층 1호 (충정로3가)",126.96227923,37.56011489,4,https://img1.kakaocdn.net/cthumb/local/R0x420.q50/?fname=https%3A%2F%2Fpostfiles.pstatic.net%2FMjAyNDExMDRfMjE5%2FMDAxNzMwNjgzMjMzMzA2.tR8rLJHaKSjy25Nh8bNeJ1cJHTZxDIuV2WMzssedEI4g.v0cJLOy0u8SljotikOarOp2JrFRoelTehnO58sNadvcg.JPEG%2F1730647589873%25EF%25BC%258D24.jpg%3Ftype%3Dw966,NULL
263,후엘고,홍대/합정/마포,카페,"서울 마포구 마포대로11길 118 1층 (염리동)",126.94783156,37.54903072,0,https://via.placeholder.com/150,NULL
264,마더린러베이글(이대점),신촌/연희,베이커리,"서울 서대문구 이화여대5길 5 1층 (대현동)",126.94538498,37.5583099,0,https://via.placeholder.com/150,NULL
265,하늘초밥,신촌/연희,일식,"서울 서대문구 이화여대2길 14 1층 (대현동)",126.94669402,37.55730859,4.5,https://img1.kakaocdn.net/cthumb/local/R0x420.q50/?fname=http%3A%2F%2Ft1.kakaocdn.net%2Fmystore%2F53DF142C40144BC299925C10019D98C7,NULL
266,필담,홍대/합정/마포,카공카페,"서울 마포구 동교로 55 2층 (망원동)",126.90837745,37.55333149,0,https://via.placeholder.com/150,NULL
267,드렁큰정글,홍대/합정/마포,카공카페,"서울 마포구 독막로5길 28 (서교동)",126.91868944,37.54923049,0,https://via.placeholder.com/150,NULL
268,야닝,홍대/합정/마포,와인바,"서울 마포구 양화로6길 99-11 3층 (서교동)",126.92002521,37.54882415,5,https://img1.kakaocdn.net/cthumb/local/R0x420.q50/?fname=http%3A%2F%2Ft1.kakaocdn.net%2Fmystore%2F0992C651CB814F839B47F20AB89C97FC,NULL
269,백색소음,신촌/연희,와인바,"서울 서대문구 연희로 38-12 지하 1층 (연희동)",126.92806548,37.56175684,4.9,https://img1.kakaocdn.net/cthumb/local/R0x420.q50/?fname=http%3A%2F%2Ft1.daumcdn.net%2Flocalfiy%2F20E7C77E12A345659890AD77E95EECF6,NULL
270,단고당,홍대/합정/마포,카페,"서울 마포구 망원로10길 3 1, 2층 (망원동)",126.90710469,37.55756519,0,https://via.placeholder.com/150,NULL
271,"쌍다리돼지불백 본점",성북/노원/중랑,한식,"서울 성북구 성북로23길 4 1층 (성북동)",126.99568816,37.59350088,0,https://via.placeholder.com/150,NULL
272,어텀브릿,용산/이태원/한남,카페,"서울 용산구 백범로99길 40 용산베르디움프렌즈 101동 1층 103호 (한강로2가)",126.97165967,37.53609329,0,https://via.placeholder.com/150,NULL
273,카키문,용산/이태원/한남,카공카페,"서울 용산구 백범로99길 40 102동 106호 (한강로2가)",126.97139749,37.5352643,0,https://via.placeholder.com/150,NULL
274,쿼츠,용산/이태원/한남,카공카페,"서울 용산구 한강대로 158 1층 103호 (한강로1가)",126.97184188,37.53295424,0,https://via.placeholder.com/150,NULL
275,버번스캐빈,용산/이태원/한남,칵테일바,"서울 용산구 한강대로 168-2 3층 (한강로1가)",126.97266526,37.53369326,5,https://img1.kakaocdn.net/cthumb/local/R0x420.q50/?fname=https%3A%2F%2Fpostfiles.pstatic.net%2FMjAyNDEwMjhfMjQz%2FMDAxNzMwMTIzMzM2NTUx.J6U1GeQPuu1ekyx7Zc7U_nAHtWspGDsQHGW2xuWwY6gg.Y9wkTq5DG_wFr6uNsfBMnkMaS4ES2fLrSwU3d7uywB0g.JPEG%2FABE0DDC9-AAEF-4181-8EF0-E97EA82AE002.jpg%3Ftype%3Dw580,NULL
276,반하당,성북/노원/중랑,카페,"서울 성북구 성북로5길 36 1층 (성북동1가)",127.00320199,37.58927346,0,https://via.placeholder.com/150,NULL
277,"원조할매곱창 미아점",미아/수유/북한산,한식,"서울 강북구 월계로3길 68 (미아동)",127.03153611,37.61264099,0,https://via.placeholder.com/150,NULL
278,마메,미아/수유/북한산,한식,"서울 강북구 덕릉로 134 2층 (번동)",127.02860441,37.63490693,4,https://img1.kakaocdn.net/cthumb/local/R0x420.q50/?fname=https%3A%2F%2Fpostfiles.pstatic.net%2FMjAyNDA4MTNfMjky%2FMDAxNzIzNTA2ODMyODU0.yBOiOxU0Mw6CH-0mrpBXPbefnuD93SvEXGO5e_7dwBQg.Nu4Xg3ew_UNEwwXjV7w4UcWJYQ5iX4yXIWUVqseXKSMg.JPEG%2FIMG_6468.jpg%3Ftype%3Dw773,NULL
279,키스,용산/이태원/한남,칵테일바,"서울 용산구 이태원로19길 6-10 1층 (이태원동)",126.9923878,37.53473413,4,https://img1.kakaocdn.net/cthumb/local/R0x420.q50/?fname=https%3A%2F%2Fpostfiles.pstatic.net%2FMjAyNDA4MjRfNDYg%2FMDAxNzI0NTAyNTQ1ODE0.oxsXZWPBEneZJcvHRLNEQ06CBO7iy_4tYfSusah3r0Eg.iPsbvTQSt4NggitYAX2YwsFXYz5-WPWoSqFdkG1UHlgg.JPEG%2FIMG_8121.jpg%3Ftype%3Dw773,NULL
280,선유혼합음료,영등포/여의도/강서,칵테일바,"서울 영등포구 양평로24길 30 동일빌딩 1층 (양평동5가)",126.89452056,37.54072397,4,https://img1.kakaocdn.net/cthumb/local/R0x420.q50/?fname=http%3A%2F%2Ft1.kakaocdn.net%2Fmystore%2F2E18B97DCD384A6F880D60F424DE4083,NULL
281,송정커피,건대/성수/왕십리,카페,"서울 성동구 송정길 82-3 1,2층 (송정동)",127.06713611,37.55227396,0,https://via.placeholder.com/150,NULL
282,파피어프로스트,종로/중구,카공카페,"서울 종로구 자하문로7길 68-4 1층 (누하동)",126.96925189,37.58032444,0,https://via.placeholder.com/150,NULL
283,출판전야,건대/성수/왕십리,카공카페,"서울 성동구 왕십리로4길 24-19 4층 1호 (성수동1가)",127.04696147,37.54673356,0,https://via.placeholder.com/150,NULL
284,"파이브스팟 고척점",구로/관악/동작,카공카페,"서울 구로구 경인로43길 49 고척아이파크몰 A동 A101호 (고척동)",126.85813711,37.49935869,0,https://via.placeholder.com/150,NULL
285,사색서랍,잠실/송파/강동,카공카페,"서울 송파구 송파대로46길 12-1 4층 (송파동)",127.10624809,37.50826919,0,https://via.placeholder.com/150,NULL
286,"헬로먼데이 코너50 성수이로점",건대/성수/왕십리,카공카페,"서울 성동구 연무장11길 8 (성수동2가)",127.05745493,37.54245819,0,https://via.placeholder.com/150,NULL
287,"히즈빈스 성수점",건대/성수/왕십리,카공카페,"서울 성동구 왕십리로2길 20 1층 (성수동1가)",127.04695915,37.54303226,0,https://via.placeholder.com/150,NULL
288,애크로매틱커피,강동/고덕,카공카페,"서울 강동구 성내로14길 37 1층 103호 (성내동)",127.12636534,37.52625863,0,https://via.placeholder.com/150,NULL
289,포틀러,건대/성수/왕십리,카페,"서울 성동구 왕십리로 82-20 에이동 1층 (성수동1가)",127.04571557,37.54486358,0,https://via.placeholder.com/150,NULL
290,물밑서재,건대/성수/왕십리,카공카페,"서울 광진구 능동로3가길 4 지하1층 (자양동)",127.06601971,37.53367076,0,https://via.placeholder.com/150,NULL
291,"에이치픽스 개포점",강남,카페,"서울 강남구 개포로17길 28 (개포동)",127.04684308,37.48045576,0,https://via.placeholder.com/150,NULL
292,"폰트커피 문래점",영등포/여의도/강서,카페,"서울 영등포구 경인로77가길 6 (문래동2가)",126.89256994,37.51225056,0,https://via.placeholder.com/150,NULL
293,오츠커피,용산/이태원/한남,카페,"서울 용산구 원효로89길 13-12 (원효로1가)",126.96775207,37.54041348,0,https://via.placeholder.com/150,NULL
294,"비어있는 삶",종로/중구,호프집,"서울 종로구 율곡로 82 7층 702호 (운니동)",126.98815863,37.57717797,4,https://img1.kakaocdn.net/cthumb/local/R0x420.q50/?fname=http%3A%2F%2Ft1.daumcdn.net%2Flocal%2FkakaomapPhoto%2Freview%2F79e86e374edff3c63786f95c0dbc3ae0af326569%3Foriginal,NULL
295,"광화문미진 본점",종로/중구,한식,"서울 종로구 종로 19 르메이에르종로타운 1층 116-2,117호 (종로1가)",126.97992344,37.57084467,0,https://via.placeholder.com/150,NULL
296,주막,미아/수유/북한산,한식,"서울 강북구 월계로7나길 30-3 1층 (미아동)",127.03202091,37.61276699,0,https://via.placeholder.com/150,NULL
297,필요의방,종로/중구,카페,"서울 중구 을지로 192 3층 (을지로4가)",126.99935708,37.5665252,0,https://via.placeholder.com/150,NULL
298,캐시미어커피,종로/중구,카페,"서울 중구 수표로6길 33-2 1층 (충무로3가)",126.99233061,37.56287772,0,https://via.placeholder.com/150,NULL
299,아소르커피,종로/중구,카페,"서울 중구 마른내로12길 7-1 1층 (오장동)",127.00057951,37.56409611,0,https://via.placeholder.com/150,NULL
300,"엔트런스4 수유",미아/수유/북한산,카공카페,"서울 강북구 도봉로 315 4층 R409,R410호 (수유동)",127.02328023,37.63692991,0,https://via.placeholder.com/150,NULL
302,히도커피,성북/노원/중랑,카페,"서울 성북구 창경궁로43길 27 히도커피 (성북동1가)",127.00390398,37.58913649,0,https://via.placeholder.com/150,NULL
303,굿모닝제너럴스토어,성북/노원/중랑,한식,"서울 성북구 성북로 108 3층 301호 (성북동)",126.99698807,37.59318017,0,https://via.placeholder.com/150,NULL
304,보이즈프롬마스,성북/노원/중랑,카페,"서울 성북구 장월로1마길 1-7 1층 (하월곡동)",127.04239095,37.60466924,0,https://via.placeholder.com/150,NULL
305,정이정,성북/노원/중랑,카페,"서울 성북구 종암로 82-15 1층 (종암동)",127.03593257,37.59790674,0,https://via.placeholder.com/150,NULL
306,카운티,종로/중구,호프집,"서울 중구 다산로42다길 52 1층 (신당동)",127.01792826,37.56214139,3,https://img1.kakaocdn.net/cthumb/local/R0x420.q50/?fname=http%3A%2F%2Ft1.kakaocdn.net%2Ffiy_reboot%2Fplace%2FA998F11627004E33BAA87F2BC372BD9D,NULL
307,스시선생,회기/청량리,일식,"서울 동대문구 경희대로4길 54 (회기동)",127.05525068,37.59147341,0,https://via.placeholder.com/150,NULL
308,이치젠,홍대/합정/마포,일식,"서울 마포구 포은로 109 1층 101호 (망원동)",126.90454806,37.55665855,3.7,https://img1.kakaocdn.net/cthumb/local/R0x420.q50/?fname=http%3A%2F%2Ft1.daumcdn.net%2Fplace%2F2316FD5A97174E4FBCA9B84DA865F166,NULL
309,커리지널,홍대/합정/마포,일식,"서울 마포구 잔다리로7안길 3 1층 (서교동)",126.91734999,37.55295969,4.2,https://img1.kakaocdn.net/cthumb/local/R0x420.q50/?fname=http%3A%2F%2Ft1.daumcdn.net%2Flocal%2FkakaomapPhoto%2Freview%2F6442f61dc04dc18d59b3d245ee7902b42577b8d7%3Foriginal,NULL
310,비스트로큐슈,홍대/합정/마포,일식,"서울 마포구 와우산로 150-2 2층 (창전동)",126.9299512,37.55439863,4.5,https://img1.kakaocdn.net/cthumb/local/R0x420.q50/?fname=http%3A%2F%2Ft1.kakaocdn.net%2Fmystore%2F6ABD96CFB362437D991F22B9851706B4,NULL
311,꼬메노,건대/성수/왕십리,카페,"서울 광진구 군자로7길 29 1층 (화양동)",127.06910812,37.54558381,0,https://via.placeholder.com/150,NULL
312,콜렉트마이페이보릿,성북/노원/중랑,카페,"서울 성북구 고려대로8길 33 1층 (안암동3가)",127.02181017,37.58444217,0,https://via.placeholder.com/150,NULL
313,꿈꾸는다락방,서초,카페,"서울 서초구 청두곶길 12 두원아파트상가 1층 (방배동)",126.98528914,37.4777647,0,https://via.placeholder.com/150,NULL
314,키친우라와,건대/성수/왕십리,돈까스,"서울 성동구 난계로 61 지층 (금호동1가)",127.02421529,37.55766051,4.4,https://img1.kakaocdn.net/cthumb/local/R0x420.q50/?fname=http%3A%2F%2Ft1.daumcdn.net%2Flocal%2FkakaomapPhoto%2Freview%2F7fa1bf1bb5821b8d0cdfff17ed73ec8068e7a25d%3Foriginal,NULL
315,회현식당,종로/중구,일식,"서울 중구 퇴계로2길 9-8 2층 (남창동)",126.97762742,37.55701216,3.8,https://img1.kakaocdn.net/cthumb/local/R0x420.q50/?fname=http%3A%2F%2Ft1.daumcdn.net%2Fplace%2FC9CDE91F881541F49FCD0FE3FE29F83F,NULL
316,키친갈매기,홍대/합정/마포,일식,"서울 마포구 포은로 73 2층 (망원동)",126.90577422,37.55358172,4,https://img1.kakaocdn.net/cthumb/local/R0x420.q50/?fname=https%3A%2F%2Fpostfiles.pstatic.net%2FMjAyNDA3MDNfMjE2%2FMDAxNzIwMDEyNzQ5MTAx.hGfe6oBC9Lb4MuqQRe68TvsMRTqCV0wlHnFX5DnrK7cg.0Zkc1XkWcSf0JU4CaFvqtMWNXKLUHjPxy6v2sacx4gAg.JPEG%2FIMG_6671.jpg%3Ftype%3Dw773,NULL
317,앤미,구로/관악/동작,일식,"서울 관악구 관악로12길 47 1층 102호 (봉천동)",126.95507146,37.47784357,4,https://img1.kakaocdn.net/cthumb/local/R0x420.q50/?fname=http%3A%2F%2Ft1.daumcdn.net%2Flocal%2FkakaomapPhoto%2Freview%2Fa5057ea93631d8324b09d1d9517fee79fd715ab1%3Foriginal,NULL
320,루밍,서초,카페,"서울 서초구 명달로 95 NK빌딩 지하 1층, 1,2층 (서초동)",127.00382171,37.48593591,0,https://via.placeholder.com/150,NULL
321,버켓크랩,홍대/합정/마포,한식,"서울 마포구 양화로6길 99-7 1층 (서교동)",126.9198805,37.54869071,5,https://img1.kakaocdn.net/cthumb/local/R0x420.q50/?fname=http%3A%2F%2Ft1.kakaocdn.net%2Ffiy_reboot%2Fplace%2FD47B2ECF454949F59E4B38A6270016CB,NULL
323,"퍼스트커피랩 강남역점",강남,카페,"서울 강남구 봉은사로6길 39 리&신 지하1층, 1층 (역삼동)",127.02793414,37.50269139,0,https://via.placeholder.com/150,NULL
324,반디,종로/중구,호프집,"서울 종로구 율곡로8길 45 1층 (와룡동)",126.9911475,37.57528975,4,https://img1.kakaocdn.net/cthumb/local/R0x420.q50/?fname=http%3A%2F%2Ft1.daumcdn.net%2Fplace%2F1F2DB4C451FF4FDB88C6AD711298AF5D,NULL
325,샤뽀블랑,성북/노원/중랑,베이커리,"서울 성북구 성북로 60 1층 (성북동)",127.00231442,37.59294953,0,https://via.placeholder.com/150,NULL
326,슬라이스룸,홍대/합정/마포,버거,"서울 마포구 와우산로3길 16 1층 101호 (상수동)",126.92206494,37.54614054,0,https://via.placeholder.com/150,NULL
327,퍼멘츠,용산/이태원/한남,와인바,"서울 용산구 한강대로7길 22 1층 (한강로3가)",126.96179478,37.52470185,4.4,https://img1.kakaocdn.net/cthumb/local/R0x420.q50/?fname=http%3A%2F%2Ft1.daumcdn.net%2Flocal%2FkakaomapPhoto%2Freview%2F1e92129c0eff58f4908fd9bb63afdbfb52adee6e%3Foriginal,NULL
328,높은산,건대/성수/왕십리,카페,"서울 성동구 성수이로 18-1 1층 (성수동2가)",127.05414227,37.53685553,0,https://via.placeholder.com/150,NULL
329,콘케,구로/관악/동작,카공카페,"서울 관악구 봉천로 604 2층 (봉천동)",126.96407165,37.4759293,0,https://via.placeholder.com/150,NULL
330,카페디딤,구로/관악/동작,카공카페,"서울 관악구 신림로 89 제B호 2층 (신림동)",126.93952101,37.47028978,0,https://via.placeholder.com/150,NULL
331,피노씨엘,구로/관악/동작,카공카페,"서울 관악구 쑥고개로 28 (봉천동)",126.94009804,37.47815769,0,https://via.placeholder.com/150,NULL
332,금지옥엽,종로/중구,카페,"서울 중구 청계천로 160 세운청계상가 3층 가열 312호 (산림동)",126.99531385,37.56775767,0,https://via.placeholder.com/150,NULL
333,넌덕,홍대/합정/마포,버거,"서울 마포구 월드컵로5길 74 1층 (합정동)",126.9084938,37.5507331,0,https://via.placeholder.com/150,NULL
334,희도식당,홍대/합정/마포,양식,"서울 마포구 희우정로 47 1층 (합정동)",126.90618492,37.55096195,4.7,https://img1.kakaocdn.net/cthumb/local/R0x420.q50/?fname=http%3A%2F%2Ft1.daumcdn.net%2Flocal%2FkakaomapPhoto%2Freview%2F92b5135ef8aea3a82897593a381f1fa2c122fb1a%3Foriginal,NULL
335,"빛의라운지 워커힐지점",건대/성수/왕십리,카페,"서울 광진구 워커힐로 177 워커힐호텔 지하1층 (광장동)",127.11131681,37.55511656,0,https://via.placeholder.com/150,NULL
336,로우어가든,서초,카페,"서울 서초구 사평대로57길 28 1층 (반포동)",127.02309463,37.50560089,0,https://via.placeholder.com/150,NULL
337,이츠야,홍대/합정/마포,돈까스,"서울 마포구 양화로6길 99-9 (서교동)",126.91993475,37.54875922,0,https://via.placeholder.com/150,NULL
338,들깨향장수밀,구로/관악/동작,한식,"서울 관악구 봉천로 355 1층 (봉천동)",126.93981485,37.48448623,0,https://via.placeholder.com/150,NULL
339,갱커피,구로/관악/동작,카공카페,"서울 관악구 관악로13길 7 지하1층, 1층 (봉천동)",126.95181459,37.47916858,0,https://via.placeholder.com/150,NULL
340,내사랑을먹어주세요,구로/관악/동작,카공카페,"서울 관악구 관악로15길 23-16 1층 (봉천동)",126.9507889,37.47954297,0,https://via.placeholder.com/150,NULL
341,잔디속에있다고상상을해,구로/관악/동작,카공카페,"서울 동작구 상도로 265-30 2층 (상도1동)",126.94884218,37.5041919,0,https://via.placeholder.com/150,NULL
342,폼앤노말,구로/관악/동작,카페,"서울 관악구 신림로67길 25 1층 (신림동)",126.9278625,37.4857878,0,https://via.placeholder.com/150,NULL
343,디자이너리카페,구로/관악/동작,카공카페,"서울 관악구 관천로 71-1 4층 (신림동)",126.92412069,37.48504483,0,https://via.placeholder.com/150,NULL
344,"비엔나커피하우스 신림점",구로/관악/동작,카공카페,"서울 관악구 신림로 363 1~3층 (신림동)",126.92895175,37.48655612,0,https://via.placeholder.com/150,NULL
345,테이블1629,구로/관악/동작,카공카페,"서울 관악구 장군봉2길 32 1,2층 (봉천동)",126.9387238,37.48304766,0,https://via.placeholder.com/150,NULL
346,2층사무실,구로/관악/동작,카공카페,"서울 관악구 남부순환로 1701 2층 (봉천동)",126.93940963,37.48362466,0,https://via.placeholder.com/150,NULL
347,"아크앤북 TP타워여의도점",영등포/여의도/강서,카페,"서울 영등포구 의사당대로 96 (여의도동)",126.92294234,37.5215483,0,https://via.placeholder.com/150,NULL
348,스미카츠,강남,돈까스,"서울 강남구 선릉로157길 23-3 1층 101호 (신사동)",127.03791513,37.52599218,0,https://via.placeholder.com/150,NULL
349,헤이커피,종로/중구,카페,"서울 종로구 대학로11길 19-4 1층 (명륜4가)",127.000634,37.58202501,0,https://via.placeholder.com/150,NULL
350,까쉬,성북/노원/중랑,카페,"서울 성북구 보문로34길 72-5 1층 (동선동2가)",127.01951016,37.59095765,0,https://via.placeholder.com/150,NULL
351,"규카츠정 대학로점",종로/중구,돈까스,"서울 종로구 대명1길 16-13 1층 (명륜4가)",127.00005095,37.58283681,0,https://via.placeholder.com/150,NULL
352,정돈,종로/중구,돈까스,"서울 종로구 대학로9길 12 지하1층 (명륜4가)",127.00109477,37.58178895,0,https://via.placeholder.com/150,NULL
353,호타루,건대/성수/왕십리,한식,"서울 성동구 상원6길 6-1 (성수동1가)",127.04893616,37.54852034,0,https://via.placeholder.com/150,NULL
354,"테토 플래그십 스토어 성수 본점",건대/성수/왕십리,카페,"서울 성동구 성수일로 45 1,2층 (성수동1가)",127.04953554,37.54452506,0,https://via.placeholder.com/150,NULL
355,로잉커피,홍대/합정/마포,카공카페,"서울 마포구 동교로 34 2층 (합정동)",126.90623867,37.55231979,0,https://via.placeholder.com/150,NULL
356,"타이프 한강점",홍대/합정/마포,카공카페,"서울 마포구 토정로 128 서강8경빌딩 5층 (상수동)",126.92533871,37.54493532,0,https://via.placeholder.com/150,NULL
357,세컨브레스,서초,카공카페,"서울 서초구 양재천로 95-2 태영빌딩 1층 (양재동)",127.03974739,37.47610378,0,https://via.placeholder.com/150,NULL
358,"베이커리 어썸피넛",성북/노원/중랑,카페,"서울 성북구 동소문로22길 57-10 1층 (동선동2가)",127.01910812,37.59061624,0,https://via.placeholder.com/150,NULL
359,스토리지북앤필름,용산/이태원/한남,카페,"서울 용산구 신흥로 115-1 1층 (용산동2가)",126.98313505,37.54474508,0,https://via.placeholder.com/150,NULL
360,오키로북스,홍대/합정/마포,카페,"서울 마포구 토정로4길 14 동송 1~3층 (합정동)",126.91490553,37.54499493,0,https://via.placeholder.com/150,NULL
361,책바,홍대/합정/마포,카페,"서울 마포구 포은로 90 3층 301호 (망원동)",126.90530037,37.55511034,0,https://via.placeholder.com/150,NULL
362,인덱스숍,건대/성수/왕십리,카페,"서울 광진구 아차산로 200 커먼그라운드 3층 (자양동)",127.06566186,37.54104835,0,https://via.placeholder.com/150,NULL
363,모스카펫,건대/성수/왕십리,카페,"서울 성동구 뚝섬로4길 29 1,2층 (성수동1가)",127.05154199,37.5382082,0,https://via.placeholder.com/150,NULL
364,"팔각도 이수역점",구로/관악/동작,한식,"서울 동작구 동작대로27다길 12 1층 (사당동)",126.98034842,37.48702275,0,https://via.placeholder.com/150,NULL
365,하카타분코,홍대/합정/마포,일식,"서울 마포구 독막로19길 43 1층 (상수동)",126.92379574,37.54889152,0,https://via.placeholder.com/150,NULL
366,"라멘트럭 상수본점",홍대/합정/마포,일식,"서울 마포구 독막로14길 31 1층 (상수동)",126.9226022,37.54747257,0,https://via.placeholder.com/150,NULL
367,아키야라멘,홍대/합정/마포,일식,"서울 마포구 토정로 39-3 1층 (합정동)",126.9153392,37.54574668,0,https://via.placeholder.com/150,NULL
368,테크런,건대/성수/왕십리,카페,"서울 광진구 능동로 149 지하1층 (화양동)",127.0722876,37.5441268,0,https://via.placeholder.com/150,NULL
369,"미션파이브 오락실 성수점",건대/성수/왕십리,카페,"서울 성동구 성수이로 77 지하1층 (성수동2가)",127.05600508,37.54198135,0,https://via.placeholder.com/150,NULL
370,"제주국수임당 본관",구로/관악/동작,한식,"서울 관악구 관악로12길 5 지하1층 (봉천동)",126.9527671,37.47826885,0,https://via.placeholder.com/150,NULL
371,아궁이빙수,구로/관악/동작,카페,"서울 관악구 관악로14길 28 1층 (봉천동)",126.95398092,37.47894599,0,https://via.placeholder.com/150,NULL
372,"나뚜루 시그니처 서울대입구역점",구로/관악/동작,카페,"서울 관악구 관악로 157 1층 (봉천동)",126.95208574,37.47945521,0,https://via.placeholder.com/150,NULL
373,"산노루 삼성점",강남,카공카페,"서울 강남구 삼성로122길 35 1층 (삼성동)",127.05505792,37.51881075,0,https://via.placeholder.com/150,NULL
374,책보냥,성북/노원/중랑,카페,"서울 성북구 성북로10가길 21 (성북동)",127.00314326,37.59271885,0,https://via.placeholder.com/150,NULL
375,선과점,연신내/구파발,카페,"서울 은평구 갈현로7가길 11 1층 (역촌동)",126.90911406,37.60280023,0,https://via.placeholder.com/150,NULL
376,버라이어티,성북/노원/중랑,카페,"서울 성북구 고려대로8길 69 1층 (안암동3가)",127.0223724,37.58292659,0,https://via.placeholder.com/150,NULL
377,멘멘츠케멘서울,용산/이태원/한남,일식,"서울 용산구 이태원로54길 58-18 1층 (한남동)",127.0007773,37.53583269,0,https://via.placeholder.com/150,NULL
378,"서울특별시교육청 남산도서관",용산/이태원/한남,카페,"서울 용산구 소월로 109 (후암동)",126.98134964,37.55300337,0,https://via.placeholder.com/150,NULL
379,테누커피,홍대/합정/마포,카페,"서울 마포구 성미산로29안길 19-4 1층 (연남동)",126.9233565,37.56563266,0,https://via.placeholder.com/150,NULL
380,티노마드,홍대/합정/마포,카페,"서울 마포구 포은로 112 2층 (망원동)",126.90468462,37.55695598,0,https://via.placeholder.com/150,NULL
381,여인숙,용산/이태원/한남,한식,"서울 용산구 녹사평대로42길 19 (이태원동)",126.98771242,37.53688532,0,https://via.placeholder.com/150,NULL
382,PPS,용산/이태원/한남,버거,"서울 용산구 한강대로50길 24 1층 (한강로2가)",126.97205514,37.53145863,0,https://via.placeholder.com/150,NULL
383,국립민속박물관,종로/중구,카페,"서울 종로구 삼청로 37 (세종로)",126.97901595,37.58169969,0,https://via.placeholder.com/150,NULL
384,"서관면옥 교대본점",서초,한식,"서울 서초구 서초대로56길 11 1층 (서초동)",127.01725609,37.4939789,0,https://via.placeholder.com/150,NULL
385,오아시스,잠실/송파/강동,카페,"서울 송파구 삼학사로3길 6 1층 (삼전동)",127.09602133,37.49938232,0,https://via.placeholder.com/150,NULL
386,푸드떼,종로/중구,카페,"서울 종로구 율곡로1길 40-37 (사간동)",126.98136605,37.57797898,0,https://via.placeholder.com/150,NULL
387,도탑다,종로/중구,카페,"서울 중구 충무로 52-2 3층 (을지로3가)",126.99286909,37.56585284,0,https://via.placeholder.com/150,NULL
388,서울인쇄센터,종로/중구,카페,"서울 중구 마른내로 140 인쇄정보센터 1,2층 (쌍림동)",127.00358011,37.56451773,0,https://via.placeholder.com/150,NULL
389,콜트레인,종로/중구,카페,"서울 중구 퇴계로27길 35 (충무로3가)",126.99122934,37.5627524,0,https://via.placeholder.com/150,NULL
390,피즈소셜클럽,종로/중구,카페,"서울 중구 을지로35길 51-4 4층 (주교동)",127.00135833,37.56906059,0,https://via.placeholder.com/150,NULL
391,구세계,종로/중구,카페,"서울 중구 충무로7길 19 5층 (을지로3가)",126.99155837,37.56570769,0,https://via.placeholder.com/150,NULL
392,"미학당 2호점",구로/관악/동작,베이커리,"서울 동작구 상도로37길 81 1층 (상도동)",126.9536462,37.49734984,0,https://via.placeholder.com/150,NULL
393,휴,신촌/연희,카페,"서울 서대문구 연희로 46 1층 (연희동)",126.92806012,37.56261999,4.5,https://img1.kakaocdn.net/cthumb/local/R0x420.q50/?fname=http%3A%2F%2Ft1.daumcdn.net%2Flocal%2FkakaomapPhoto%2Freview%2Fa9e36d2edda0f2b1094274679ca7787cc29c581a%3Foriginal,NULL
394,하바티,홍대/합정/마포,카페,"서울 마포구 동교로 209-4 1, 2층 (동교동)",126.92320836,37.5588814,0,https://via.placeholder.com/150,NULL
395,벤베누토,성북/노원/중랑,양식,"서울 성북구 동소문로20나길 39 동선동복합빌 2층 (동선동1가)",127.01852781,37.59279583,4.5,https://img1.kakaocdn.net/cthumb/local/R0x420.q50/?fname=http%3A%2F%2Ft1.kakaocdn.net%2Fmystore%2F23C558F5D5A6423E9E062DE9CB0036BF,NULL
396,카츠오도,구로/관악/동작,돈까스,"서울 관악구 조원로16가길 51 1층 (신림동)",126.9133936,37.48246958,0,https://via.placeholder.com/150,NULL
397,흥도식당,잠실/송파/강동,돈까스,"서울 송파구 법원로 114 지하1층 B동 155-1호 (문정동)",127.12102774,37.48552078,0,https://via.placeholder.com/150,NULL
398,"이즈니베이커리 현대백화점 무역센터점",강남,베이커리,"서울 강남구 테헤란로 517 지하1층 (삼성동)",127.05975113,37.50880101,0,https://via.placeholder.com/150,NULL
399,연이네김밥,성북/노원/중랑,분식,"서울 성북구 보문로38길 11 (동소문동5가)",127.01449997,37.59152239,0,https://via.placeholder.com/150,NULL
400,수아당,성북/노원/중랑,분식,"서울 성북구 동소문로20가길 33 1,2층 (동선동1가)",127.01802174,37.59307071,0,https://via.placeholder.com/150,NULL
401,시홍쓰,건대/성수/왕십리,한식,"서울 광진구 능동로17길 5 1층 (화양동)",127.07301597,37.54608512,0,https://via.placeholder.com/150,NULL
402,연필,건대/성수/왕십리,카페,"서울 광진구 면목로 12 1층 102호 (군자동)",127.07558826,37.55522413,0,https://via.placeholder.com/150,NULL
403,유어스베이크샵,목동/양천,베이커리,"서울 양천구 목동서로 37 하이베라스 1층 112호 (목동)",126.881915,37.53747384,0,https://via.placeholder.com/150,NULL
404,"시글루 건대점",건대/성수/왕십리,카페,"서울 광진구 동일로22길 42 4층 (화양동)",127.06644333,37.54185881,0,https://via.placeholder.com/150,NULL
405,"바스버거 역삼점",강남,버거,"서울 강남구 테헤란로26길 10 성보빌딩 지하1층 (역삼동)",127.03583793,37.49963305,0,https://via.placeholder.com/150,NULL
406,"불이아 역삼점",강남,중식,"서울 강남구 논현로 514 (역삼동)",127.03654334,37.50257795,4.1,https://img1.kakaocdn.net/cthumb/local/R0x420.q50/?fname=http%3A%2F%2Ft1.daumcdn.net%2Flocal%2FkakaomapPhoto%2Freview%2F23d36d544303211bcc3f855839b692a6c75c3480%3Foriginal,NULL
407,"이도곰탕 본점",강남,한식,"서울 강남구 논현로94길 29-5 (역삼동)",127.03846125,37.5033732,4.1,https://img1.kakaocdn.net/cthumb/local/R0x420.q50/?fname=http%3A%2F%2Ft1.daumcdn.net%2Flocal%2FkakaomapPhoto%2Freview%2F335d2f4069e33412b1f7a198e87df64ee275a741%3Foriginal,NULL
408,을지로전주옥,종로/중구,한식,"서울 중구 을지로 101 1층 (을지로2가)",126.98917339,37.56636162,0,https://via.placeholder.com/150,NULL
409,"스퀘어 한남",용산/이태원/한남,카페,"서울 용산구 이태원로 230 1층 (한남동)",126.99929059,37.53549482,0,https://via.placeholder.com/150,NULL
410,쏭타이치앙마이,용산/이태원/한남,아시안,"서울 용산구 한강대로40길 39-5 1층 (한강로2가)",126.97159961,37.53036561,4.5,https://img1.kakaocdn.net/cthumb/local/R0x420.q50/?fname=http%3A%2F%2Ft1.kakaocdn.net%2Fmystore%2FCAD75EF79F6447D9AE9999DA79B4E3EB,NULL
411,홍탁목포집,종로/중구,한식,"서울 중구 청구로 86-1 (신당동)",127.01277591,37.56070047,0,https://via.placeholder.com/150,NULL
412,크레미엘,서초,베이커리,"서울 서초구 양재천로21길 3 1층 (양재동)",127.03915257,37.47580574,0,https://via.placeholder.com/150,NULL
413,메종조,서초,베이커리,"서울 서초구 반포대로7길 35 102호 (서초동)",127.01011909,37.4819783,0,https://via.placeholder.com/150,NULL
414,조가네족발왕,구로/관악/동작,한식,"서울 동작구 동작대로23길 21 대원빌딩 1층 (사당동)",126.98054367,37.48407468,0,https://via.placeholder.com/150,NULL
415,진미식당,용산/이태원/한남,한식,"서울 용산구 백범로90길 46 1층 (문배동)",126.9701829,37.53667947,0,https://via.placeholder.com/150,NULL
416,노틀던,건대/성수/왕십리,베이커리,"서울 성동구 서울숲2길 11 1층 (성수동1가)",127.04003076,37.54738303,0,https://via.placeholder.com/150,NULL
417,올딧세,용산/이태원/한남,카페,"서울 용산구 한강대로21길 29-16 1층 (한강로3가)",126.96303919,37.52698088,0,https://via.placeholder.com/150,NULL
418,한남라매종,용산/이태원/한남,베이커리,"서울 용산구 한남대로20길 51 (한남동)",127.00974156,37.53493309,0,https://via.placeholder.com/150,NULL
419,오라라,용산/이태원/한남,카페,"서울 용산구 이태원로54길 32 (한남동)",127.0017481,37.53698055,0,https://via.placeholder.com/150,NULL
420,"이월로스터스 성수점",건대/성수/왕십리,카공카페,"서울 성동구 서울숲2길 46 (성수동1가)",127.04373384,37.54621492,0,https://via.placeholder.com/150,NULL
421,카페서울숲,건대/성수/왕십리,카공카페,"서울 성동구 왕십리로 63 1층 (성수동1가)",127.04374136,37.5435804,0,https://via.placeholder.com/150,NULL
422,"푸르너스가든 서울숲점",건대/성수/왕십리,카페,"서울 성동구 서울숲2길 46-9 동심원 빌딩 1층 (성수동1가)",127.04362965,37.54606089,0,https://via.placeholder.com/150,NULL
423,메쉬커피,건대/성수/왕십리,카페,"서울 성동구 서울숲길 43 (성수동1가)",127.04245396,37.5481192,0,https://via.placeholder.com/150,NULL
424,다로베,건대/성수/왕십리,버거,"서울 성동구 왕십리로11길 7 1층 (성수동1가)",127.04338665,37.54851891,0,https://via.placeholder.com/150,NULL
425,스테치,건대/성수/왕십리,카페,"서울 성동구 연무장9길 6 2층 (성수동2가)",127.05595253,37.54283372,0,https://via.placeholder.com/150,NULL
426,브루잉세레모니,건대/성수/왕십리,카페,"서울 성동구 연무장5가길 22-1 1층 (성수동2가)",127.05517436,37.54328459,0,https://via.placeholder.com/150,NULL
427,페이퍼마쉐,종로/중구,카공카페,"서울 종로구 무교로 40 (서린동)",126.97947781,37.56951833,0,https://via.placeholder.com/150,NULL
429,키,건대/성수/왕십리,한식,"서울 성동구 연무장길 41-9 1층 (성수동2가)",127.05396123,37.54313378,0,https://via.placeholder.com/150,NULL
430,피자시즌,건대/성수/왕십리,피자,"서울 성동구 성수이로14길 14 가동 1층 (성수동2가)",127.05690647,37.54140608,0,https://via.placeholder.com/150,NULL
431,카페포제,건대/성수/왕십리,카페,"서울 성동구 연무장9길 7 1층 (성수동2가)",127.05575119,37.54293653,0,https://via.placeholder.com/150,NULL
432,헤이웨이브,종로/중구,호프집,"서울 중구 퇴계로87길 43-25 1층 (황학동)",127.01989907,37.56746416,4.7,https://img1.kakaocdn.net/cthumb/local/R0x420.q50/?fname=http%3A%2F%2Ft1.daumcdn.net%2Flocal%2FkakaomapPhoto%2Freview%2Fd926be64295481ec4b0b6f8335b9f826cf6034c2%3Foriginal,NULL
433,세실앤세드릭,종로/중구,카페,"서울 중구 퇴계로81길 8 (황학동)",127.01813292,37.5659778,0,https://via.placeholder.com/150,NULL
434,한스피자,종로/중구,피자,"서울 중구 다산로42길 37 (신당동)",127.01838158,37.56450554,0,https://via.placeholder.com/150,NULL
435,책나라,회기/청량리,카페,"서울 동대문구 경희대로4길 60 (회기동)",127.05547707,37.59138681,0,https://via.placeholder.com/150,NULL
436,리드스트리트커피,회기/청량리,카공카페,"서울 동대문구 회기로 166 지하1,2층 (회기동)",127.05448898,37.59036014,0,https://via.placeholder.com/150,NULL
437,너만보여크루아상,회기/청량리,카공카페,"서울 동대문구 망우로21길 63 1층 (휘경동)",127.05949327,37.5899793,0,https://via.placeholder.com/150,NULL
438,"아티제 외대점",회기/청량리,카공카페,"서울 동대문구 이문로 107 (이문동)",127.05965239,37.5964087,0,https://via.placeholder.com/150,NULL
439,프리무인카페,회기/청량리,카페,"서울 동대문구 휘경로2길 4 지하1층 (이문동)",127.06096544,37.59581698,0,https://via.placeholder.com/150,NULL
440,더하우스1932,종로/중구,카공카페,"서울 중구 만리재로35길 7 (만리동1가)",126.96737887,37.55554295,0,https://via.placeholder.com/150,NULL
441,모모키친,용산/이태원/한남,돈까스,"서울 용산구 한강대로104길 50 (동자동)",126.97489874,37.55029828,0,https://via.placeholder.com/150,NULL
442,한끼한잔,용산/이태원/한남,한식,"서울 용산구 후암로 101 1층 (동자동)",126.97430582,37.55340389,0,https://via.placeholder.com/150,NULL
443,죠우,용산/이태원/한남,일식,"서울 용산구 후암로 97-1 1층 (동자동)",126.97464535,37.55336792,4,https://img1.kakaocdn.net/cthumb/local/R0x420.q50/?fname=http%3A%2F%2Ft1.daumcdn.net%2Fplace%2F3B1BE695C1BD47769C5198ED4CFCA6A7,NULL
444,오서독스,용산/이태원/한남,카공카페,"서울 용산구 한강대로102길 11-22 (동자동)",126.97302143,37.55001225,0,https://via.placeholder.com/150,NULL
445,메시야,용산/이태원/한남,돈까스,"서울 용산구 한강대로 358 1층 (동자동)",126.97218511,37.55008503,0,https://via.placeholder.com/150,NULL
446,"꺼거 본점",용산/이태원/한남,중식,"서울 용산구 한강대로48길 10 1층 (한강로2가)",126.97112738,37.53153049,4.4,https://img1.kakaocdn.net/cthumb/local/R0x420.q50/?fname=https%3A%2F%2Fpostfiles.pstatic.net%2FMjAyNDA1MTJfMjAg%2FMDAxNzE1NTIxMDcyMjk2.t_RjBH4HcVeQuOcOmjet9JLOpVYNCeiAp71cpboLWP4g.8XPjA6mTqlQePN5GnGs9zYJTV470lUOR6LNNuhjD7bwg.JPEG%2FSE-9a9295a7-1015-11ef-8955-b16dd264887d.jpg%3Ftype%3Dw966,NULL
447,테이블도손,용산/이태원/한남,베이커리,"서울 용산구 한강대로 177 2층 201호 (한강로1가)",126.97270562,37.5347168,0,https://via.placeholder.com/150,NULL
448,몽상가,용산/이태원/한남,한식,"서울 용산구 한강대로38가길 7-16 (한강로2가)",126.97014605,37.52977509,4,https://img1.kakaocdn.net/cthumb/local/R0x420.q50/?fname=https%3A%2F%2Fpostfiles.pstatic.net%2FMjAyNDEwMDZfMjc2%2FMDAxNzI4MTUwMzQxNjky.Jo-BolZk051Qi9yvtSSPD6xfjWE5lsep5sxKjn65akIg.YVdMya8AkOFm9epZZbZUOPm_OX4WWdAVsFr_TDf1bfog.JPEG%2F749843112.150616.jpg%3Ftype%3Dw966,NULL
449,해피앤피스커피클럽,신촌/연희,카페,"서울 서대문구 연희로 134 1층 (연희동)",126.93317907,37.56937056,0,https://via.placeholder.com/150,NULL
450,"미도파 커피하우스",신촌/연희,카페,"서울 서대문구 성산로 317 2층 (연희동)",126.92541334,37.56656831,0,https://via.placeholder.com/150,NULL
451,"아모르나폴리 계동점",종로/중구,베이커리,"서울 종로구 계동길 15 1,2층 (계동)",126.98659624,37.57796708,0,https://via.placeholder.com/150,NULL
452,"누아르 마르디 메크르디",용산/이태원/한남,카페,"서울 용산구 이태원로54길 5 (한남동)",127.00194047,37.53805184,0,https://via.placeholder.com/150,NULL
453,만게츠,건대/성수/왕십리,일식,"서울 광진구 능동로31길 14 1층 (군자동)",127.07777319,37.55588945,4.4,https://img1.kakaocdn.net/cthumb/local/R0x420.q50/?fname=http%3A%2F%2Ft1.daumcdn.net%2Flocal%2FkakaomapPhoto%2Freview%2Fee4a08e028d7785b759a76579c833df3447c23d0%3Foriginal,NULL
454,능동곱창전문점,건대/성수/왕십리,한식,"서울 광진구 능동로36길 15 (능동)",127.08006871,37.55621948,0,https://via.placeholder.com/150,NULL
455,오디움,서초,카페,"서울 서초구 헌릉로8길 6 (신원동)",127.05896611,37.45689701,0,https://via.placeholder.com/150,NULL
456,"어반클리프 & 글래스룸",용산/이태원/한남,카페,"서울 용산구 신흥로20길 43 (후암동)",126.98405785,37.54739865,0,https://via.placeholder.com/150,NULL
457,"콤포타블 남산",용산/이태원/한남,카페,"서울 용산구 두텁바위로60길 49 대원정사 별관 4층 (후암동)",126.98365125,37.54900598,0,https://via.placeholder.com/150,NULL
458,"빈브라더스 커피하우스 서울",홍대/합정/마포,카페,"서울 마포구 토정로9길 2 6,7층 (상수동)",126.92445583,37.54518704,0,https://via.placeholder.com/150,NULL
459,파파야리프,강남,아시안,"서울 강남구 강남대로102길 29 2층 (역삼동)",127.02765151,37.50296897,4.2,https://img1.kakaocdn.net/cthumb/local/R0x420.q50/?fname=http%3A%2F%2Ft1.daumcdn.net%2Flocal%2FkakaomapPhoto%2Freview%2F7c70b1c29cd9905c6b9b2647d57852d101245e26%3Foriginalhttps://img1.kakaocdn.net/cthumb/local/R0x420.q50/?fname=http%3A%2F%2Ft1.daumcdn.net%2Flocal%2FkakaomapPhoto%2Freview%2F7c70b1c29cd9905c6b9b2647d57852d101245e26%3Foriginal,NULL
460,"종로수제비 서소문점",종로/중구,한식,"서울 중구 세종대로11길 26 1층 (서소문동)",126.97439785,37.56227333,0,https://via.placeholder.com/150,NULL
461,느루,용산/이태원/한남,양식,"서울 용산구 한강대로 126-2 (한강로2가)",126.96968637,37.53066787,3.8,https://img1.kakaocdn.net/cthumb/local/R0x420.q50/?fname=http%3A%2F%2Ft1.daumcdn.net%2Flocal%2FkakaomapPhoto%2Freview%2Fee4a08e028d7785b759a76579c833df3447c23d0%3Foriginal,NULL
462,써머레인,용산/이태원/한남,베이커리,"서울 용산구 이태원로55가길 49 1층 (한남동)",126.99926456,37.53635437,0,https://via.placeholder.com/150,NULL
463,NOSH,구로/관악/동작,베이커리,"서울 관악구 조원로13길 64 1층 (신림동)",126.91176451,37.48523177,0,https://via.placeholder.com/150,NULL
464,카페OCT25,건대/성수/왕십리,베이커리,"서울 성동구 사근동길 53 1층 (사근동)",127.04685159,37.56101172,0,https://via.placeholder.com/150,NULL
465,"뚝섬자벌레 서울생각마루",건대/성수/왕십리,카페,"서울 광진구 강변북로 2202 (자양동)",127.06530254,37.52994462,0,https://via.placeholder.com/150,NULL
466,올림픽공원장미축제,잠실/송파/강동,카페,"서울 송파구 올림픽로 424 (방이동)",127.12765035,37.51289718,0,https://via.placeholder.com/150,NULL
467,"대현산 장미원",건대/성수/왕십리,카페,"서울 성동구 금호동1가 산 37-1",127.02879672,37.55187778,0,https://via.placeholder.com/150,NULL
468,씨네마포,홍대/합정/마포,카페,"서울 마포구 독막로9길 3-3 1층 (서교동)",126.91932268,37.54862365,0,https://via.placeholder.com/150,NULL
469,버거브라더,창동/도봉산,버거,"서울 도봉구 마들로 657 1층 101~4호 (방학동)",127.04592081,37.66897212,0,https://via.placeholder.com/150,NULL
470,래빗홀버거,건대/성수/왕십리,버거,"서울 광진구 광나루로 424 1층 (화양동)",127.07654083,37.54604054,0,https://via.placeholder.com/150,NULL
471,"세븐패티버거 압구정로데오점",강남,버거,"서울 강남구 선릉로 815 (신사동)",127.039323,37.52487087,0,https://via.placeholder.com/150,NULL
472,밀로밀,홍대/합정/마포,베이커리,"서울 마포구 희우정로10길 9 1층 (망원동)",126.90449856,37.55287792,0,https://via.placeholder.com/150,NULL
473,"코끼리베이글 성수점",건대/성수/왕십리,베이커리,"서울 성동구 성수이로26길 17 1,2층 (성수동2가)",127.05953302,37.54604313,0,https://via.placeholder.com/150,NULL
474,필앳홈,잠실/송파/강동,카페,"서울 송파구 백제고분로41길 6-5 연빌딩 1층 (송파동)",127.10869249,37.50689113,0,https://via.placeholder.com/150,NULL
475,라잇크,마곡/김포,베이커리,"서울 강서구 등촌로39나길 20 1층 (등촌동)",126.861512,37.54630309,0,https://via.placeholder.com/150,NULL
476,"뚝섬한강공원 장미원",건대/성수/왕십리,카페,"서울 광진구 자양동 427-22",127.07383895,37.52804388,0,https://via.placeholder.com/150,NULL
477,스시복,홍대/합정/마포,일식,"서울 마포구 마포대로12길 34 소담빌딩 2층 201호 (공덕동)",126.95469019,37.54751357,0,https://via.placeholder.com/150,NULL
478,피포파,종로/중구,카페,"서울 종로구 북촌로 20-9 (재동)",126.9855523,37.57883371,0,https://via.placeholder.com/150,NULL
479,"봄의정원 성수점",건대/성수/왕십리,호프집,"서울 성동구 연무장길 81 남경빌딩 지하1층 (성수동2가)",127.05824755,37.54169645,4,https://img1.kakaocdn.net/cthumb/local/R0x420.q50/?fname=https%3A%2F%2Fpostfiles.pstatic.net%2FMjAyMjEyMDVfMjg5%2FMDAxNjcwMTY5OTM5NjU2.ipBpZPiukFaiQIyehVlbdY_6YqWN2GIlYNd4g0G9mvkg.sXmFyvFPGwaTmXObqUaaM-Y_yLMCDGv_NpyHH_MK6rAg.JPEG.811page%2FIMG_2337.JPG%3Ftype%3Dw966,NULL
480,네스트스토어,용산/이태원/한남,카페,"서울 용산구 녹사평대로32길 5 102호 (이태원동)",126.98915661,37.53373917,0,https://via.placeholder.com/150,NULL
481,"해리스플라워마켓 연남점",홍대/합정/마포,카페,"서울 마포구 양화로21길 17 1층 (동교동)",126.92492178,37.55898341,0,https://via.placeholder.com/150,NULL
484,"빌라드블루 Villa de Bleu",용산/이태원/한남,양식,"서울 용산구 신흥로 30-1 1층 (용산동2가)",126.98717651,37.54118124,3.7,https://img1.kakaocdn.net/cthumb/local/R0x420.q50/?fname=http%3A%2F%2Ft1.kakaocdn.net%2Fmystore%2F701EEA0EB4B3431190EAF57832CE3426,NULL
485,세이지앤버터,강남,양식,"서울 강남구 언주로157길 6 1층 (신사동)",127.03242186,37.52398998,4,https://img1.kakaocdn.net/cthumb/local/R0x420.q50/?fname=http%3A%2F%2Ft1.daumcdn.net%2Flocal%2FkakaomapPhoto%2Freview%2F6bab6703d13f0a6a6630d0f288a0ce41fa57753b%3Foriginal,NULL
486,오튀그,종로/중구,카페,"서울 종로구 율곡로10길 77 (권농동)",126.99160611,37.57405002,0,https://via.placeholder.com/150,NULL
487,새탁소,종로/중구,호프집,"서울 종로구 율곡로10길 59 (권농동)",126.9914781,37.57483297,3.7,https://img1.kakaocdn.net/cthumb/local/R0x420.q50/?fname=http%3A%2F%2Ft1.daumcdn.net%2Flocal%2FkakaomapPhoto%2Freview%2Ff9b25dfa1e4b2b0849fe7177d7357c07b067f262%3Foriginal,NULL
488,토터스,용산/이태원/한남,베이커리,"서울 용산구 신흥로 81 1,2층 (용산동2가)",126.9860793,37.54532301,0,https://via.placeholder.com/150,NULL
489,아차산숲속도서관,건대/성수/왕십리,카페,"서울 광진구 영화사로 139 (광장동)",127.10087871,37.5524707,0,https://via.placeholder.com/150,NULL
490,"홍팥집 양재점",강남,베이커리,"서울 강남구 남부순환로359길 31 1층 (도곡동)",127.03563505,37.48678925,0,https://via.placeholder.com/150,NULL
491,가내수공업고깃집,건대/성수/왕십리,한식,"서울 성동구 둘레1길 12 1층 (성수동1가)",127.04618691,37.53851315,0,https://via.placeholder.com/150,NULL
492,무에,종로/중구,카페,"서울 종로구 북촌로8길 28 1층 (계동)",126.98664101,37.58085387,0,https://via.placeholder.com/150,NULL
493,거처,종로/중구,카페,"서울 종로구 율곡로8길 63 1층 (와룡동)",126.9913921,37.5745077,0,https://via.placeholder.com/150,NULL
494,"수수커피 디타워점",종로/중구,카페,"서울 종로구 종로3길 17 1층 128호 (청진동)",126.97892725,37.57107155,0,https://via.placeholder.com/150,NULL
495,소바연구소,신촌/연희,일식,"서울 서대문구 명물길 50-9 1층 (창천동)",126.93945409,37.55877102,0,https://via.placeholder.com/150,NULL
496,석종,홍대/합정/마포,한식,"서울 마포구 동교로27길 3-14 1층 (동교동)",126.92255049,37.55807728,0,https://via.placeholder.com/150,NULL
497,미드메,종로/중구,베이커리,"서울 종로구 자하문로 36 1층 (통의동)",126.97173614,37.57926729,0,https://via.placeholder.com/150,NULL
498,"스시도쿠 더성수",건대/성수/왕십리,한식,"서울 성동구 서울숲6길 13 포레스트성수 1층 (성수동1가)",127.04305687,37.54770182,0,https://via.placeholder.com/150,NULL
499,오잇(OEAT),용산/이태원/한남,카페,"서울 용산구 신흥로 95 건물전체 (용산동2가)",126.98509025,37.54553462,0,https://via.placeholder.com/150,NULL
500,소월솥밥,용산/이태원/한남,한식,"서울 용산구 신흥로 95-21 1층 (용산동2가)",126.98501793,37.54504807,0,https://via.placeholder.com/150,NULL
501,해방식당,용산/이태원/한남,한식,"서울 용산구 신흥로22길 5 1층 (용산동2가)",126.98463307,37.54566971,4.1,https://img1.kakaocdn.net/cthumb/local/R0x420.q50/?fname=http%3A%2F%2Ft1.kakaocdn.net%2Fmystore%2FB3B28DD3F65E41F7A87DFB188BBC5E60,NULL
502,downfloor104,용산/이태원/한남,베이커리,"서울 용산구 이태원로54가길 7 지하1층 (한남동)",127.00191217,37.53737249,0,https://via.placeholder.com/150,NULL
503,아이도넛케어,용산/이태원/한남,베이커리,"서울 용산구 이태원로20가길 4 (이태원동)",126.99239698,37.53351598,0,https://via.placeholder.com/150,NULL
504,"서울페이스트리 연남점",홍대/합정/마포,베이커리,"서울 마포구 동교로41길 10 1층 (연남동)",126.92416632,37.56287974,0,https://via.placeholder.com/150,NULL
505,피르마,종로/중구,베이커리,"서울 종로구 계동길 5 1층 6호 (계동)",126.98668459,37.57768688,0,https://via.placeholder.com/150,NULL
506,"웻커피 한남점",용산/이태원/한남,베이커리,"서울 용산구 한남대로27가길 10 지하1층 (한남동)",127.00313416,37.53760672,0,https://via.placeholder.com/150,NULL
507,"회기버거 본점",회기/청량리,버거,"서울 동대문구 이문로 46 1층 (휘경동)",127.05711211,37.59142567,0,https://via.placeholder.com/150,NULL
508,미국식,서초,버거,"서울 서초구 서초대로29길 17-2 1층 (방배동)",126.9951141,37.48914436,0,https://via.placeholder.com/150,NULL
509,로스트앤파운드,종로/중구,버거,"서울 중구 충무로4길 5 태창빌딩 2층 202호 (초동)",126.99318609,37.56509062,0,https://via.placeholder.com/150,NULL
510,"헝그리부처 본점",서초,버거,"서울 서초구 방배로 199 (방배동)",126.99114839,37.49111553,0,https://via.placeholder.com/150,NULL
511,야래향,종로/중구,한식,"서울 중구 퇴계로10길 14 (회현동1가)",126.98013722,37.55868846,0,https://via.placeholder.com/150,NULL
512,"모던눌랑 센트럴시티점",서초,한식,"서울 서초구 사평대로 205 센트럴시티 파미에가든 4층 BP4-6호 (반포동)",127.00674051,37.50406403,0,https://via.placeholder.com/150,NULL
513,한강춘,용산/이태원/한남,한식,"서울 용산구 이촌로 248 1층 (이촌동)",126.97246204,37.52021422,0,https://via.placeholder.com/150,NULL
514,아원,건대/성수/왕십리,한식,"서울 성동구 매봉길 50 1층 (옥수동)",127.0132454,37.54671062,0,https://via.placeholder.com/150,NULL
515,"더리얼치즈버거 이태원",용산/이태원/한남,버거,"서울 용산구 녹사평대로40길 55-2 2층 (이태원동)",126.98892568,37.53454284,0,https://via.placeholder.com/150,NULL
516,카츠맨션,용산/이태원/한남,돈까스,"서울 용산구 한강대로15길 19-19 1층 (한강로3가)",126.96284768,37.5253482,0,https://via.placeholder.com/150,NULL
517,"일월카츠 안국점",종로/중구,돈까스,"서울 종로구 북촌로1길 11 1층 (안국동)",126.98515637,37.57733981,0,https://via.placeholder.com/150,NULL
518,미하무,서초,돈까스,"서울 서초구 서초대로27길 30 1층 (방배동)",126.99434632,37.4893903,0,https://via.placeholder.com/150,NULL
519,레브두,잠실/송파/강동,베이커리,"서울 송파구 백제고분로45길 19 2층 (송파동)",127.10931315,37.50981251,0,https://via.placeholder.com/150,NULL
520,캘프,건대/성수/왕십리,버거,"서울 성동구 한림말3길 10 1층 (옥수동)",127.01629406,37.54210163,0,https://via.placeholder.com/150,NULL
521,"후지필름TP존 즐거운카메라",용산/이태원/한남,카페,"서울 용산구 청파로 74 전자랜드 신관 2층 210호 (한강로3가)",126.95955956,37.5327885,0,https://via.placeholder.com/150,NULL
522,디지탈창신,종로/중구,카페,"서울 중구 남대문로 6-4 1층 (남대문로4가)",126.97659986,37.56038619,0,https://via.placeholder.com/150,NULL
523,릴리언,용산/이태원/한남,베이커리,"서울 용산구 한남대로27가길 15 1층 (한남동)",127.00291012,37.53738688,0,https://via.placeholder.com/150,NULL
524,프로퍼커피바,잠실/송파/강동,카페,"서울 송파구 위례성대로22길 6 유진빌딩 1층 (오금동)",127.1311466,37.50969298,0,https://via.placeholder.com/150,NULL
525,포니,홍대/합정/마포,베이커리,"서울 마포구 토정로4길 6-1 2층 (합정동)",126.91469257,37.54518669,0,https://via.placeholder.com/150,NULL
526,하늘을걷는고양이카페,구로/관악/동작,카페,"서울 동작구 동작대로27길 15 서범빌딩 4층 (사당동)",126.98101769,37.48745525,0,https://via.placeholder.com/150,NULL
527,피에이치디,홍대/합정/마포,카공카페,"서울 마포구 월드컵로8길 53 지더블유빌딩 1층 101호 (서교동)",126.9152205,37.55363664,0,https://via.placeholder.com/150,NULL
528,"한시십일분 2호점",회기/청량리,카공카페,"서울 동대문구 망우로 40 지하 1층 (휘경동)",127.05789118,37.58857996,0,https://via.placeholder.com/150,NULL
529,"카페 무미",성북/노원/중랑,카공카페,"서울 중랑구 중랑역로47길 12 1층 (묵동)",127.07462948,37.61512635,0,https://via.placeholder.com/150,NULL
530,키친오브인디아,잠실/송파/강동,한식,"서울 송파구 올림픽로 336 대우유토피아 지하1층 6호 (방이동)",127.10745719,37.51539684,0,https://via.placeholder.com/150,NULL
531,우동가조쿠,건대/성수/왕십리,한식,"서울 성동구 왕십리로 215-2 1층 (행당동)",127.04288442,37.55680106,0,https://via.placeholder.com/150,NULL
532,코노하,창동/도봉산,한식,"서울 도봉구 우이천로20길 7 상가 103동 1층 118호 (창동)",127.03379713,37.64095116,0,https://via.placeholder.com/150,NULL
533,키마라야,서초,한식,"서울 서초구 방배중앙로 204 1층 108호 (방배동)",126.98569463,37.49752926,0,https://via.placeholder.com/150,NULL
534,카레,성북/노원/중랑,한식,"서울 성북구 성북로 62-1 1층 (성북동)",127.00204268,37.5931946,0,https://via.placeholder.com/150,NULL
535,"고가빈커리하우스 광화문본점",종로/중구,한식,"서울 종로구 경희궁2길 7 3층 (내수동)",126.97094841,37.57289707,0,https://via.placeholder.com/150,NULL
536,버거플리즈,영등포/여의도/강서,버거,"서울 영등포구 국제금융로 86 지하 1층 (여의도동)",126.93174335,37.5201887,0,https://via.placeholder.com/150,NULL
537,카페2.7,잠실/송파/강동,카페,"서울 송파구 백제고분로36가길 15 201호 (석촌동)",127.10167701,37.50447187,0,https://via.placeholder.com/150,NULL
538,실루엣커피,홍대/합정/마포,카페,"서울 마포구 독막로8길 33-5 1층 (합정동)",126.91800453,37.54637205,0,https://via.placeholder.com/150,NULL
539,시논샵,용산/이태원/한남,카페,"서울 용산구 두텁바위로60길 49 신관빌딩 101호 (후암동)",126.98354609,37.54866088,0,https://via.placeholder.com/150,NULL
540,살리다,홍대/합정/마포,카페,"서울 마포구 신촌로12다길 8 (노고산동)",126.93298372,37.55494099,0,https://via.placeholder.com/150,NULL
541,어라운드데이,건대/성수/왕십리,카페,"서울 성동구 서울숲2길 24-1 (성수동1가)",127.04126959,37.54686183,0,https://via.placeholder.com/150,NULL
542,플래드카페,건대/성수/왕십리,카페,"서울 성동구 서울숲2길 12-7 1,4층 (성수동1가)",127.03986652,37.54708756,0,https://via.placeholder.com/150,NULL
543,시즈니,건대/성수/왕십리,베이커리,"서울 성동구 서울숲6길 14 거암아트빌라 2층 201호 (성수동1가)",127.0430398,37.54752433,0,https://via.placeholder.com/150,NULL
544,로우커피스탠드,건대/성수/왕십리,카페,"서울 성동구 왕십리로4길 28-2 1층 (성수동1가)",127.04663357,37.54715716,0,https://via.placeholder.com/150,NULL
545,TTRS,건대/성수/왕십리,카페,"서울 성동구 아차산로9길 12 1층 (성수동2가)",127.05829082,37.54496075,0,https://via.placeholder.com/150,NULL
546,희작,종로/중구,카페,"서울 종로구 백석동길 155 (부암동)",126.96772831,37.59550936,0,https://via.placeholder.com/150,NULL
547,센버스,건대/성수/왕십리,카페,"서울 성동구 아차산로13길 31 2층 (성수동2가)",127.06151094,37.54592319,0,https://via.placeholder.com/150,NULL
548,북살롱오티움,종로/중구,카페,"서울 종로구 삼일대로15길 6 3층 (관철동)",126.98715251,37.56892025,0,https://via.placeholder.com/150,NULL
549,브라이트사이드,종로/중구,카페,"서울 종로구 보문로7길 3 1,2층 (숭인동)",127.02286781,37.57766289,0,https://via.placeholder.com/150,NULL
550,포스트노빌즈,홍대/합정/마포,베이커리,"서울 마포구 망원로2길 82 1층 (망원동)",126.90342022,37.55362307,0,https://via.placeholder.com/150,NULL
551,누크녹,홍대/합정/마포,베이커리,"서울 마포구 성미산로 190-31 2층 (연남동)",126.92583048,37.56253211,0,https://via.placeholder.com/150,NULL
552,베티버,건대/성수/왕십리,베이커리,"서울 성동구 성덕정11길 18 1층 (성수동2가)",127.05319105,37.53891925,0,https://via.placeholder.com/150,NULL
553,헤브어트리,용산/이태원/한남,베이커리,"서울 용산구 두텁바위로 5 1층 103,103-1호 (갈월동)",126.9728149,37.54535223,0,https://via.placeholder.com/150,NULL
554,아사프,홍대/합정/마포,베이커리,"서울 마포구 동교로39길 10 1층 (연남동)",126.92375959,37.56216139,0,https://via.placeholder.com/150,NULL
555,리프커피바,잠실/송파/강동,베이커리,"서울 송파구 백제고분로43길 24 R&BHaus 1층 101호 (송파동)",127.10828533,37.50924042,0,https://via.placeholder.com/150,NULL
556,"더 코티지",구로/관악/동작,베이커리,"서울 관악구 행운1길 85 (봉천동)",126.95604107,37.48240304,0,https://via.placeholder.com/150,NULL
557,당신의달,구로/관악/동작,카페,"서울 관악구 청림2길 31-17 1층 (봉천동)",126.95923812,37.48725162,0,https://via.placeholder.com/150,NULL
558,버터럼,구로/관악/동작,베이커리,"서울 관악구 관악로30길 9 2층 (봉천동)",126.95802417,37.48649795,0,https://via.placeholder.com/150,NULL
559,"앤더슨씨 성수",건대/성수/왕십리,카페,"서울 성동구 성수일로6길 36 (성수동2가)",127.05387169,37.54449884,0,https://via.placeholder.com/150,NULL
560,흐릇,건대/성수/왕십리,카페,"서울 광진구 군자로 19 1층 (화양동)",127.071029,37.54500063,0,https://via.placeholder.com/150,NULL
561,"칠월의 복숭아",건대/성수/왕십리,베이커리,"서울 성동구 행당로 84 행당한진타운종합상가 지하1층 푸드코트 006호 (행당동)",127.02874646,37.55656028,0,https://via.placeholder.com/150,NULL
562,오피스오브,홍대/합정/마포,베이커리,"서울 마포구 성미산로 107 1층 (연남동)",126.91889284,37.562032,0,https://via.placeholder.com/150,NULL
564,당도,건대/성수/왕십리,카페,"서울 성동구 왕십리로 80-1 동아아파트 상가 1층 3호 (성수동1가)",127.04523228,37.54468266,0,https://via.placeholder.com/150,NULL
565,프라텔리,강남,카페,"서울 강남구 봉은사로4길 31 지하1층,1층 (역삼동)",127.02691635,37.502843,0,https://via.placeholder.com/150,NULL
566,스테레오포닉사운드,홍대/합정/마포,카페,"서울 마포구 와우산로21길 6 동산빌딩 1층 (서교동)",126.92362221,37.55260172,0,https://via.placeholder.com/150,NULL
567,브리비트,건대/성수/왕십리,한식,"서울 성동구 상원6길 5-1 1층 (성수동1가)",127.04885479,37.54868976,0,https://via.placeholder.com/150,NULL
568,"베통 성수",건대/성수/왕십리,베이커리,"서울 성동구 연무장7가길 8 (성수동2가)",127.05522616,37.54294489,0,https://via.placeholder.com/150,NULL
569,티와이티디,홍대/합정/마포,베이커리,"서울 마포구 양화로19길 22-8 1층 101호 (동교동)",126.92415718,37.55849639,0,https://via.placeholder.com/150,NULL
570,"카레나이스 여의도점",영등포/여의도/강서,한식,"서울 영등포구 국제금융로2길 32 여의도파이낸스타워 2층 204호 (여의도동)",126.92413794,37.52388357,0,https://via.placeholder.com/150,NULL
571,시옹마오,건대/성수/왕십리,한식,"서울 성동구 연무장7길 7-1 린빌딩 3층 (성수동2가)",127.05445144,37.54347233,0,https://via.placeholder.com/150,NULL
572,"저스트인 플레이버오브아시아 롯데백화점본점",종로/중구,한식,"서울 중구 남대문로 81 지하 1층 (소공동)",126.98173042,37.5647299,0,https://via.placeholder.com/150,NULL
573,육타,건대/성수/왕십리,한식,"서울 성동구 왕십리로 58 1층 112호 (성수동1가)",127.04541996,37.54255353,0,https://via.placeholder.com/150,NULL
574,도림천,구로/관악/동작,카페,"서울 관악구 신림동 808-1",126.93382224,37.47177609,0,https://via.placeholder.com/150,NULL
575,"피아바 살로네",건대/성수/왕십리,카페,"서울 성동구 성수일로 52 1층 (성수동2가)",127.05002699,37.54505014,0,https://via.placeholder.com/150,NULL
576,레어로우하우스,건대/성수/왕십리,카페,"서울 성동구 연무장길 20 (성수동1가)",127.05155355,37.54349526,0,https://via.placeholder.com/150,NULL
577,알키미스타,신촌/연희,한식,"서울 서대문구 거북골로24길 27-8 1층 (북가좌동)",126.90785008,37.58089434,0,https://via.placeholder.com/150,NULL
578,뉴믹스커피,건대/성수/왕십리,카페,"서울 성동구 연무장3길 3 (성수동2가)",127.05126873,37.54397832,0,https://via.placeholder.com/150,NULL
579,팔레트샐러드,신촌/연희,한식,"서울 서대문구 연희로 83 은혜빌딩 지하1층 (연희동)",126.92978432,37.56581326,0,https://via.placeholder.com/150,NULL
580,모멍데모시옹,서초,베이커리,"서울 서초구 반포대로3길 31 1층 102호 (서초동)",127.01066168,37.48123943,0,https://via.placeholder.com/150,NULL
581,로파치노에스프레소바,강남,카페,"서울 강남구 강남대로162길 37 1층 (신사동)",127.02133465,37.52091108,0,https://via.placeholder.com/150,NULL
582,픽셀퍼인치,용산/이태원/한남,카페,"서울 용산구 한강대로54길 7 우석빌딩 3층 301호 (한강로1가)",126.97205575,37.53283897,0,https://via.placeholder.com/150,NULL
583,"서울시립 미술아카이브",종로/중구,카페,"서울 종로구 평창문화로 101 (평창동)",126.97193827,37.60778643,0,https://via.placeholder.com/150,NULL
584,"미니멀리스트키친 이수부",강남,한식,"서울 강남구 논현로57길 38 (도곡동)",127.03799353,37.49095568,0,https://via.placeholder.com/150,NULL
585,크래프티,구로/관악/동작,카페,"서울 관악구 낙성대로 24 2층 (봉천동)",126.95877147,37.47636006,0,https://via.placeholder.com/150,NULL
586,"iwlt 서울",건대/성수/왕십리,카페,"서울 광진구 천호대로118길 39 (능동)",127.08471417,37.55291318,0,https://via.placeholder.com/150,NULL
587,랑꼬뉴,강남,베이커리,"서울 강남구 도산대로49길 6-8 1층 (신사동)",127.03797042,37.52346845,0,https://via.placeholder.com/150,NULL
588,하얀과자점,영등포/여의도/강서,베이커리,"서울 영등포구 국제금융로 70 미원빌딩 1층 108호 (여의도동)",126.93067881,37.52149453,0,https://via.placeholder.com/150,NULL
589,"마코토 청담점",강남,한식,"서울 강남구 압구정로80길 37 이에스빌딩 2층 (청담동)",127.04358533,37.52436121,0,https://via.placeholder.com/150,NULL
590,"콜트 커피바",홍대/합정/마포,카페,"서울 마포구 동교로 33-3 지하1층 (망원동)",126.90595191,37.55266915,0,https://via.placeholder.com/150,NULL
591,금금,건대/성수/왕십리,한식,"서울 성동구 성수이로12길 11 1층 (성수동2가)",127.05665634,37.53982765,0,https://via.placeholder.com/150,NULL
592,"후추포인트 성수",건대/성수/왕십리,한식,"서울 성동구 서울숲4길 21 예원빌딩 1층 (성수동1가)",127.04334065,37.54725122,0,https://via.placeholder.com/150,NULL
593,칩멍크,미아/수유/북한산,카페,"서울 강북구 삼양로98길 7 1층 (수유동)",127.01761582,37.63874007,0,https://via.placeholder.com/150,NULL
594,정거장뒤,연신내/구파발,한식,"서울 은평구 응암로12길 21 1층 (응암동)",126.91910867,37.58747353,0,https://via.placeholder.com/150,NULL
595,매개체커피,연신내/구파발,카페,"서울 은평구 증산로21길 7-7 1층 (신사동)",126.91385392,37.59544359,0,https://via.placeholder.com/150,NULL
596,산보클럽,연신내/구파발,카페,"서울 은평구 가좌로11가길 2 1층 2호 (신사동)",126.90755789,37.59653894,0,https://via.placeholder.com/150,NULL
597,숨쉴틈,잠실/송파/강동,한식,"서울 송파구 백제고분로45길 12 (송파동)",127.11019178,37.50968619,0,https://via.placeholder.com/150,NULL
598,"초이다이닝 송파점",잠실/송파/강동,한식,"서울 송파구 백제고분로45길 21-1 2층 (송파동)",127.10897628,37.50993716,0,https://via.placeholder.com/150,NULL
599,"씨네Q 신도림",구로/관악/동작,카페,"서울 구로구 새말로 97 신도림테크노마트 12층 (구로동)",126.89003874,37.50751615,0,https://via.placeholder.com/150,NULL
600,페잇퍼,신촌/연희,카페,"서울 서대문구 연희로15안길 32-7 1층 (연희동)",126.93042992,37.57022401,0,https://via.placeholder.com/150,NULL
601,"일루소 커피",종로/중구,카페,"서울 중구 소월로 39-1 1층 (남창동)",126.97696896,37.55630385,0,https://via.placeholder.com/150,NULL
602,"현대카드 디자인 라이브러리",종로/중구,카페,"서울 종로구 북촌로 31-18 (가회동)",126.98399209,37.57975432,0,https://via.placeholder.com/150,NULL
603,북파크라운지,용산/이태원/한남,카페,"서울 용산구 이태원로 294 블루스퀘어 3층 (한남동)",127.00251649,37.54095846,0,https://via.placeholder.com/150,NULL
604,"양천근린공원 책쉼터",목동/양천,카페,"서울 양천구 목동동로 지하 111 (신정동)",126.86810537,37.51827871,0,https://via.placeholder.com/150,NULL
605,"진부책방 스튜디오",홍대/합정/마포,카페,"서울 마포구 잔다리로 112 2층 (서교동)",126.91439391,37.55699226,0,https://via.placeholder.com/150,NULL
606,언코르크드,종로/중구,한식,"서울 종로구 율곡로 55 지하1층 (안국동)",126.98543044,37.57674609,0,https://via.placeholder.com/150,NULL
607,해브해드,건대/성수/왕십리,카페,"서울 성동구 연무장길 50 1층 (성수동2가)",127.05483772,37.54249907,0,https://via.placeholder.com/150,NULL
608,브릭베이글,홍대/합정/마포,베이커리,"서울 마포구 동교로 43-1 101호 (망원동)",126.90713753,37.55298814,0,https://via.placeholder.com/150,NULL
609,웰컴투마이홈,회기/청량리,카페,"서울 동대문구 망우로18가길 8 (휘경동)",127.06217506,37.58935083,0,https://via.placeholder.com/150,NULL
610,메밀집,잠실/송파/강동,한식,"서울 송파구 백제고분로45길 25 1층 (송파동)",127.10863496,37.51011588,0,https://via.placeholder.com/150,NULL
611,베이비펌킨(babypumpkin),용산/이태원/한남,한식,"서울 용산구 한강대로10길 13 (한강로3가)",126.96424885,37.52399082,0,https://via.placeholder.com/150,NULL
612,연가정,홍대/합정/마포,일식,"서울 마포구 동교로22길 38 1층 101호 (서교동)",126.91791661,37.55431429,0,https://via.placeholder.com/150,NULL
613,"리뉴드 성수",건대/성수/왕십리,카페,"서울 성동구 연무장19길 11 1층 (성수동2가)",127.06263532,37.54135904,0,https://via.placeholder.com/150,NULL
614,봉순이네다락방,건대/성수/왕십리,카페,"서울 성동구 왕십리로21길 13-1 지하1~2층 (행당동)",127.03298122,37.56111822,0,https://via.placeholder.com/150,NULL
615,해로커피,성북/노원/중랑,카페,"서울 성북구 성북로 19-3 1층 (성북동1가)",127.00423801,37.58959868,0,https://via.placeholder.com/150,NULL
616,우모에,용산/이태원/한남,카페,"서울 용산구 한강대로84길 21-17 (남영동)",126.97348512,37.54444598,0,https://via.placeholder.com/150,NULL
617,"어메이징브루잉컴퍼니 성수브루펍",건대/성수/왕십리,한식,"서울 성동구 성수일로4길 4 1층 (성수동1가)",127.04936923,37.54285378,0,https://via.placeholder.com/150,NULL
618,쉐프의콜렉션,건대/성수/왕십리,한식,"서울 광진구 자양로18길 72 1층 (구의동)",127.0875897,37.5383086,0,https://via.placeholder.com/150,NULL
619,"호랑이 경복궁점",종로/중구,카페,"서울 종로구 자하문로1길 50 1층 (필운동)",126.96973782,37.57690259,0,https://via.placeholder.com/150,NULL
620,오데옹,신촌/연희,카페,"서울 서대문구 연희로 52-6 (연희동)",126.92836775,37.56285984,0,https://via.placeholder.com/150,NULL
621,밀스,건대/성수/왕십리,카페,"서울 성동구 뚝섬로4길 21 1,2층 (성수동1가)",127.05080358,37.53885724,0,https://via.placeholder.com/150,NULL
622,스톤앤워터,잠실/송파/강동,카페,"서울 송파구 가락로 283 1층 (방이동)",127.11981678,37.51311982,0,https://via.placeholder.com/150,NULL
623,스토9,종로/중구,한식,"서울 종로구 인사동16길 19 1층 (관훈동)",126.98406091,37.5755557,0,https://via.placeholder.com/150,NULL
624,대막,강남,한식,"서울 강남구 압구정로46길 75 1층 (신사동)",127.03670926,37.52384277,0,https://via.placeholder.com/150,NULL
625,"심퍼티쿠시 가로수길점",강남,한식,"서울 강남구 강남대로154길 16 1층 101호 (신사동)",127.02056452,37.51761354,0,https://via.placeholder.com/150,NULL
626,"최가네 버섯샤브매운탕칼국수 본점",강남,한식,"서울 강남구 도산대로51길 36 2,3층 (신사동)",127.0382237,37.52545508,0,https://via.placeholder.com/150,NULL
627,잔원,연신내/구파발,카페,"서울 은평구 가좌로11가길 2 1층 1호 (신사동)",126.90754311,37.59658578,0,https://via.placeholder.com/150,NULL
628,"도마 인사점",종로/중구,한식,"서울 종로구 인사동8길 6-1 (관훈동)",126.98584534,37.57377917,0,https://via.placeholder.com/150,NULL
629,브라운하우스,홍대/합정/마포,카공카페,"서울 마포구 동교로50길 25 2층 (연남동)",126.927369,37.56333496,0,https://via.placeholder.com/150,NULL
630,브라운하우스,홍대/합정/마포,카페,"서울 마포구 동교로50길 25 2층 (연남동)",126.927369,37.56333496,0,https://via.placeholder.com/150,NULL
631,언뎁트,용산/이태원/한남,카페,"서울 용산구 두텁바위로13길 11 (후암동)",126.97664389,37.54623603,0,https://via.placeholder.com/150,NULL
632,도토리브라더스,종로/중구,한식,"서울 종로구 경희궁길 41 1층 (신문로2가)",126.96925947,37.57291466,0,https://via.placeholder.com/150,NULL
633,뮤추얼사운드클럽,종로/중구,한식,"서울 종로구 자하문로 23 3층 (체부동)",126.97148074,37.57808332,0,https://via.placeholder.com/150,NULL
634,카페토우토우,영등포/여의도/강서,카페,"서울 영등포구 도림로125길 16 1층 (문래동2가)",126.89491349,37.5130942,0,https://via.placeholder.com/150,NULL
635,이트앤드링크,건대/성수/왕십리,카페,"서울 성동구 성수일로8길 39-1 1층 (성수동2가)",127.05502115,37.5457525,0,https://via.placeholder.com/150,NULL
636,"도토리 베이커리카페 신용산점",용산/이태원/한남,베이커리,"서울 용산구 한강대로52길 25-6 1층 (한강로1가)",126.97279037,37.53189128,0,https://via.placeholder.com/150,NULL
637,올리버바이쇼텐,강남,한식,"서울 강남구 선릉로157길 25 2층 (신사동)",127.03771272,37.52616433,0,https://via.placeholder.com/150,NULL
638,진주리,종로/중구,카페,"서울 종로구 성균관로7길 3 지하1층 (명륜3가)",126.99632033,37.58665696,0,https://via.placeholder.com/150,NULL
639,하우스오브바이닐,홍대/합정/마포,카페,"서울 마포구 동교로 230 지하1층 (동교동)",126.92446308,37.56042291,0,https://via.placeholder.com/150,NULL
640,"하우스오브바이닐 망원점",홍대/합정/마포,카페,"서울 마포구 희우정로16길 23 (망원동)",126.90324916,37.55463205,0,https://via.placeholder.com/150,NULL
641,컴피,홍대/합정/마포,한식,"서울 마포구 양화로6길 32 2층 (합정동)",126.91597618,37.54886639,0,https://via.placeholder.com/150,NULL
642,연희곰탕,신촌/연희,한식,"서울 서대문구 증가로 17 1층 (연희동)",126.93090574,37.56978821,0,https://via.placeholder.com/150,NULL
643,오트,신촌/연희,한식,"서울 서대문구 연희로25길 95 (연희동)",126.9322462,37.56953761,0,https://via.placeholder.com/150,NULL
644,마우디,신촌/연희,한식,"서울 서대문구 연희로11길 18 1층 (연희동)",126.93016532,37.56749925,0,https://via.placeholder.com/150,NULL
645,오향만두,신촌/연희,한식,"서울 서대문구 연희맛로 22 1층 (연희동)",126.93012511,37.56692619,0,https://via.placeholder.com/150,NULL
646,"시오 연희본점",신촌/연희,한식,"서울 서대문구 연희로11가길 23 1층 (연희동)",126.92875296,37.56721369,0,https://via.placeholder.com/150,NULL
647,"세이버 앤 페이버",건대/성수/왕십리,카공카페,"서울 성동구 성수일로 28 2층 (성수동1가)",127.04928328,37.54292499,0,https://via.placeholder.com/150,NULL
648,종이숲,홍대/합정/마포,카공카페,"서울 마포구 희우정로 93 1층 (망원동)",126.90234058,37.55362038,0,https://via.placeholder.com/150,NULL
649,파티세리폰드,용산/이태원/한남,베이커리,"서울 용산구 이태원로 243 2층 (한남동)",127.00001131,37.53679586,0,https://via.placeholder.com/150,NULL
650,울프소셜클럽,용산/이태원/한남,카공카페,"서울 용산구 한남대로 158 101호 (한남동)",127.00270664,37.54245501,0,https://via.placeholder.com/150,NULL
651,마더오프라인,용산/이태원/한남,카페,"서울 용산구 이태원로55나길 6 1층 (한남동)",126.99909484,37.53666071,0,https://via.placeholder.com/150,NULL
652,한남작업실,용산/이태원/한남,카페,"서울 용산구 이태원로55나길 7 1층 (한남동)",126.99873278,37.53652556,0,https://via.placeholder.com/150,NULL
653,음주가의책방,구로/관악/동작,한식,"서울 관악구 관악로12길 3-14 지하1층 (봉천동)",126.95279846,37.4787437,0,https://via.placeholder.com/150,NULL
654,마이리틀케이브,강남,한식,"서울 강남구 논현로94길 7 3층 (역삼동)",127.03693176,37.50247268,0,https://via.placeholder.com/150,NULL
655,"문학살롱 초고",홍대/합정/마포,한식,"서울 마포구 독막로2길 30 지하1층 101호 (합정동)",126.91426924,37.5472704,0,https://via.placeholder.com/150,NULL
656,"세컨드 라이브러리",강남,카공카페,"서울 강남구 영동대로137길 6 1층 (청담동)",127.05500366,37.52194356,0,https://via.placeholder.com/150,NULL
657,"콘하스 한남",용산/이태원/한남,카공카페,"서울 용산구 이태원로55나길 22 (한남동)",126.9980539,37.5368409,0,https://via.placeholder.com/150,NULL
658,커피스토어,성북/노원/중랑,카공카페,"서울 성북구 안암로5길 72 (안암동3가)",127.0227424,37.58221113,0,https://via.placeholder.com/150,NULL
659,디스코볼로스,홍대/합정/마포,카페,"서울 마포구 동교로 42 1층 (합정동)",126.90692417,37.55256541,0,https://via.placeholder.com/150,NULL
660,크렘므오브제,용산/이태원/한남,카페,"서울 용산구 이태원로14길 33 (이태원동)",126.99133351,37.5330654,0,https://via.placeholder.com/150,NULL
661,두두상점,홍대/합정/마포,카페,"서울 마포구 포은로 80 1층 (망원동)",126.90554705,37.55423747,0,https://via.placeholder.com/150,NULL
662,모두링,홍대/합정/마포,카페,"서울 마포구 동교로38길 27-8 (연남동)",126.92592181,37.5617474,0,https://via.placeholder.com/150,NULL
663,코후꾸잡화점,홍대/합정/마포,카페,"서울 마포구 연남로3길 13 (연남동)",126.9217924,37.56114107,0,https://via.placeholder.com/150,NULL
664,빅슬립샵,신촌/연희,카페,"서울 서대문구 성산로 379 2층 (연희동)",126.93105445,37.56319301,0,https://via.placeholder.com/150,NULL
665,공공재커피클럽,종로/중구,카페,"서울 종로구 윤보선길 35 1층 (안국동)",126.98367218,37.57755225,0,https://via.placeholder.com/150,NULL
666,마스트리스보트,성북/노원/중랑,카페,"서울 노원구 섬밭로 16 201호 (공릉동)",127.07274436,37.61819539,0,https://via.placeholder.com/150,NULL
667,이노메싸,서초,카페,"서울 서초구 양재천로 127 1층 (양재동)",127.04166156,37.47845746,0,https://via.placeholder.com/150,NULL
668,카페모호,서초,카페,"서울 서초구 양재천로7길 1 1층 (양재동)",127.03606323,37.47429663,0,https://via.placeholder.com/150,NULL
669,몽밀,영등포/여의도/강서,한식,"서울 영등포구 도림로125길 34 1층 (문래동2가)",126.8930775,37.51324933,0,https://via.placeholder.com/150,NULL
670,동감,종로/중구,한식,"서울 종로구 사직로8길 24 경희궁의아침2단지 101, 115호 (내수동)",126.97156715,37.57412077,0,https://via.placeholder.com/150,NULL
671,호라파,종로/중구,한식,"서울 종로구 자하문로 37-1 2층 (통인동)",126.97111571,37.57938157,0,https://via.placeholder.com/150,NULL
672,"알키미아 서촌점",종로/중구,카페,"서울 종로구 옥인길 59-1 1층 101호 (누상동)",126.96558672,37.5814785,0,https://via.placeholder.com/150,NULL
673,대림미술관,종로/중구,카페,"서울 종로구 자하문로4길 21 (통의동)",126.97336244,37.57754497,0,https://via.placeholder.com/150,NULL
674,세이지핀치,종로/중구,베이커리,"서울 종로구 필운대로1길 8 1층 (필운동)",126.96895873,37.57747362,0,https://via.placeholder.com/150,NULL
675,서촌김씨뜨라또리아,종로/중구,한식,"서울 종로구 자하문로9길 6 2층 (통인동)",126.9708711,37.57957162,0,https://via.placeholder.com/150,NULL
676,"알라딘중고서점 이수역점",서초,카페,"서울 서초구 방배동 2989 지하1층",126.98247452,37.48541028,0,https://via.placeholder.com/150,NULL
677,서점리스본&포르투,홍대/합정/마포,카페,"서울 마포구 성미산로23길 60 (연남동)",126.92007012,37.56610531,0,https://via.placeholder.com/150,NULL
678,산체스막걸리,종로/중구,한식,"서울 종로구 윤보선길 26 지하1층 (안국동)",126.98405151,37.57717389,0,https://via.placeholder.com/150,NULL
679,"손문 대구막창갈매기살 용산점",용산/이태원/한남,한식,"서울 용산구 새창로 213-9 1층 (한강로2가)",126.96766577,37.5306376,0,https://via.placeholder.com/150,NULL
680,서촌라운지,종로/중구,카페,"서울 종로구 필운대로 27-4 (누하동)",126.96886774,37.57848991,0,https://via.placeholder.com/150,NULL
681,오일제,용산/이태원/한남,한식,"서울 용산구 한강대로62다길 29 1층 (한강로1가)",126.97473612,37.53254044,0,https://via.placeholder.com/150,NULL
682,식캣사인,용산/이태원/한남,카페,"서울 용산구 원효로83길 7-2 2층 (원효로1가)",126.96775336,37.54004677,0,https://via.placeholder.com/150,NULL
683,티에이티디,영등포/여의도/강서,한식,"서울 영등포구 경인로77길 12 3층 (문래동2가)",126.89294917,37.51282033,0,https://via.placeholder.com/150,NULL
684,챙스베리,신촌/연희,베이커리,"서울 서대문구 성산로 325 동신빌딩 1층 (연희동)",126.92638463,37.56644549,0,https://via.placeholder.com/150,NULL
685,뉘블랑쉬,신촌/연희,베이커리,"서울 서대문구 연희로15길 52 지층 B03호 (연희동)",126.92985312,37.56968848,0,https://via.placeholder.com/150,NULL
686,평화,영등포/여의도/강서,카페,"서울 영등포구 도림로131길 13 1층 (문래동2가)",126.89432103,37.51372798,0,https://via.placeholder.com/150,NULL
687,전축,종로/중구,한식,"서울 중구 충무로 23 2층 (충무로3가)",126.99280822,37.56324806,0,https://via.placeholder.com/150,NULL
688,포엣룸,영등포/여의도/강서,카페,"서울 영등포구 도림로141가길 4 1층 (문래동4가)",126.89262158,37.51489235,0,https://via.placeholder.com/150,NULL
689,"히포 브런치하우스",홍대/합정/마포,카페,"서울 마포구 성미산로17길 85 1층,지하1층 (연남동)",126.91722439,37.56521947,0,https://via.placeholder.com/150,NULL
690,"다이어메이커 문래점",영등포/여의도/강서,한식,"서울 영등포구 도림로 440-23 1층 (문래동3가)",126.8947012,37.51525372,0,https://via.placeholder.com/150,NULL
691,Uig,홍대/합정/마포,카페,"서울 마포구 망원로3길 7 1층 (망원동)",126.90144655,37.55704523,0,https://via.placeholder.com/150,NULL
692,푸어링아웃,신촌/연희,카페,"서울 서대문구 연희로11나길 7-7 (연희동)",126.92812579,37.56731332,0,https://via.placeholder.com/150,NULL
693,업스탠딩커피,용산/이태원/한남,카페,"서울 용산구 신흥로 99-11 1,2층 (용산동2가)",126.98496137,37.54495796,0,https://via.placeholder.com/150,NULL
694,기쁜소식,성북/노원/중랑,카페,"서울 성북구 종암로10길 26 1층 (종암동)",127.03705381,37.5960044,0,https://via.placeholder.com/150,NULL
695,벌새,종로/중구,카페,"서울 종로구 새문안로3길 12 신문로빌딩 지하1층 22,23호 (신문로1가)",126.97294583,37.571319,0,https://via.placeholder.com/150,NULL
696,커피하우스,홍대/합정/마포,카페,"서울 마포구 월드컵북로 126 2층 201호 (성산동)",126.91296393,37.56429559,0,https://via.placeholder.com/150,NULL
697,헷키,신촌/연희,베이커리,"서울 서대문구 가재울로4길 62 1층 (남가좌동)",126.92473018,37.5761815,0,https://via.placeholder.com/150,NULL
698,카페양귀비,회기/청량리,카페,"서울 동대문구 이문로9길 8 1층 (이문동)",127.05748918,37.59293195,0,https://via.placeholder.com/150,NULL
699,컴투레스트,회기/청량리,카페,"서울 동대문구 회기로 161-11 1층 (회기동)",127.05420653,37.591209,0,https://via.placeholder.com/150,NULL
700,튠업,회기/청량리,카공카페,"서울 동대문구 이문로9길 46 지하1층 (이문동)",127.05649379,37.59430193,0,https://via.placeholder.com/150,NULL
701,오앤디,회기/청량리,카페,"서울 동대문구 망우로12가길 17 1층 (휘경동)",127.06009923,37.58882573,0,https://via.placeholder.com/150,NULL
702,한시십일분,회기/청량리,카공카페,"서울 동대문구 망우로 66 지하1층 (휘경동)",127.06096028,37.58949202,0,https://via.placeholder.com/150,NULL
703,"민들레영토 경희대점",회기/청량리,카페,"서울 동대문구 경희대로1길 34 (회기동)",127.05036412,37.59199817,0,https://via.placeholder.com/150,NULL
704,캥거루,종로/중구,한식,"서울 종로구 자하문로5길 18-13 (체부동)",126.97021061,37.57792173,0,https://via.placeholder.com/150,NULL
705,루트3025,종로/중구,카공카페,"서울 종로구 세검정로 243 1층 (신영동)",126.95932319,37.60130915,0,https://via.placeholder.com/150,NULL
706,썬키친,홍대/합정/마포,한식,"서울 마포구 양화로6길 50 2층 (합정동)",126.91697905,37.54864906,0,https://via.placeholder.com/150,NULL
707,언니네함바그,회기/청량리,한식,"서울 동대문구 회기로25길 59 1층 (이문동)",127.05676863,37.5923953,0,https://via.placeholder.com/150,NULL
708,"신림춘천집 본점",구로/관악/동작,한식,"서울 관악구 남부순환로 1600-8 1층 (신림동)",126.92876913,37.4835935,0,https://via.placeholder.com/150,NULL
709,오첨지,구로/관악/동작,한식,"서울 관악구 남부순환로176길 18 2층 (신림동)",126.92856147,37.48318972,0,https://via.placeholder.com/150,NULL
710,"정담은보쌈 신림점",구로/관악/동작,한식,"서울 관악구 남부순환로 1661 (봉천동)",126.93540238,37.48520831,0,https://via.placeholder.com/150,NULL
711,막불감동,구로/관악/동작,한식,"서울 관악구 남부순환로 1599 지하1층 (신림동)",126.92820313,37.48429054,0,https://via.placeholder.com/150,NULL
712,브네,건대/성수/왕십리,한식,"서울 광진구 군자로 70 106 (군자동)",127.07101801,37.54892629,0,https://via.placeholder.com/150,NULL
713,"우마이도 건대점",건대/성수/왕십리,일식,"서울 광진구 능동로 135-2 1층 (화양동)",127.07169023,37.54304146,0,https://via.placeholder.com/150,NULL
714,"앤트러사이트 서교점",홍대/합정/마포,카공카페,"서울 마포구 월드컵로12길 11 (서교동)",126.91167943,37.55552163,0,https://via.placeholder.com/150,NULL
715,보리수,성북/노원/중랑,카공카페,"서울 성북구 고려대로8길 25 1층 (안암동3가)",127.02166988,37.58478096,0,https://via.placeholder.com/150,NULL
716,보통공원,홍대/합정/마포,카공카페,"서울 마포구 망원로 79 3층 (망원동)",126.90561067,37.55763608,0,https://via.placeholder.com/150,NULL
717,미드스트오브플로우,용산/이태원/한남,카공카페,"서울 용산구 두텁바위로1길 36 1, 2층 (갈월동)",126.97424503,37.54591117,0,https://via.placeholder.com/150,NULL
718,파이인더샵,홍대/합정/마포,베이커리,"서울 마포구 성미산로27길 26 (연남동)",126.92169677,37.56491258,0,https://via.placeholder.com/150,NULL
719,더파이샵,홍대/합정/마포,베이커리,"서울 마포구 성미산로 163 1층 (연남동)",126.92426613,37.56491696,0,https://via.placeholder.com/150,NULL
720,"파롤앤랑그 연남본점",홍대/합정/마포,베이커리,"서울 마포구 성미산로29안길 8 (연남동)",126.92285573,37.56498993,0,https://via.placeholder.com/150,NULL
721,"청키파이 성수본점",건대/성수/왕십리,베이커리,"서울 성동구 아차산로7길 24 1층 1-1호 (성수동2가)",127.0550833,37.54717064,0,https://via.placeholder.com/150,NULL
722,뚜르띠에르,건대/성수/왕십리,베이커리,"서울 성동구 왕십리로2길 30 1층 (성수동1가)",127.04805433,37.54279035,0,https://via.placeholder.com/150,NULL
723,이스파이,건대/성수/왕십리,베이커리,"서울 성동구 한림말길 17 (옥수동)",127.01310747,37.54097938,0,https://via.placeholder.com/150,NULL
724,"피스피스 연남점",홍대/합정/마포,베이커리,"서울 마포구 동교로51길 91 2층 (연남동)",126.92204644,37.5660796,0,https://via.placeholder.com/150,NULL
725,소설원서가,성북/노원/중랑,카공카페,"서울 성북구 동소문로 37 (동소문동4가)",127.0099639,37.59035067,0,https://via.placeholder.com/150,NULL
726,스시라온,건대/성수/왕십리,한식,"서울 성동구 성수일로 10 서울숲 ITCT지식산업센터 1층 106호 (성수동1가)",127.0488228,37.54128356,0,https://via.placeholder.com/150,NULL
727,찌마찌마,건대/성수/왕십리,한식,"서울 성동구 연무장3길 5-1 2층 201호 (성수동2가)",127.05136395,37.54423506,0,https://via.placeholder.com/150,NULL
728,스시오오모토,건대/성수/왕십리,한식,"서울 성동구 상원1길 39-1 4층 (성수동1가)",127.04683715,37.54697688,0,https://via.placeholder.com/150,NULL
729,"바스켓12 계동",종로/중구,카페,"서울 종로구 계동길 54 (계동)",126.98679178,37.57971683,0,https://via.placeholder.com/150,NULL
730,도키메이테,강남,한식,"서울 강남구 테헤란로4길 6 강남역센트럴푸르지오시티 지하1층 120호 (역삼동)",127.02927573,37.49767967,0,https://via.placeholder.com/150,NULL
731,스시이로,강남,한식,"서울 강남구 언주로 615 논현아이파크 103동 지하1층 B120호 (논현동)",127.03631025,37.51049993,0,https://via.placeholder.com/150,NULL
732,와사이진,강남,한식,"서울 강남구 언주로 615 논현아이파크103동 1층 103호 (논현동)",127.03618477,37.51063962,0,https://via.placeholder.com/150,NULL
733,스시야스다,서초,한식,"서울 서초구 서초대로58길 18 (서초동)",127.01774121,37.49399235,0,https://via.placeholder.com/150,NULL
734,"와인앤모어 성수역점",건대/성수/왕십리,카페,"서울 성동구 아차산로 104 1층 (성수동2가)",127.05529183,37.54452971,0,https://via.placeholder.com/150,NULL
735,더와인콜렉티브,건대/성수/왕십리,카페,"서울 성동구 연무장5길 7 1층 (성수동2가)",127.05247841,37.54404176,0,https://via.placeholder.com/150,NULL
736,유어네이키드치즈,건대/성수/왕십리,카페,"서울 성동구 왕십리로10길 6 서울숲비즈포레 105호 (성수동1가)",127.04531044,37.54668375,0,https://via.placeholder.com/150,NULL
737,패티스,종로/중구,버거,"서울 중구 창경궁로5길 8 1,2층 (산림동)",126.99754828,37.56723065,0,https://via.placeholder.com/150,NULL
738,"끌 잠실새내역점",잠실/송파/강동,한식,"서울 송파구 백제고분로7길 29 우림빌딩 1층 (잠실동)",127.08216024,37.51089951,0,https://via.placeholder.com/150,NULL
739,고토히라우동,홍대/합정/마포,한식,"서울 마포구 와우산로29길 14-8 지하1층 (서교동)",126.92917196,37.5550613,0,https://via.placeholder.com/150,NULL
740,아따,용산/이태원/한남,버거,"서울 용산구 한남대로27가길 8-3 1층 (한남동)",127.00308098,37.53770493,0,https://via.placeholder.com/150,NULL
741,생각정리하는Bar,성북/노원/중랑,한식,"서울 성북구 동소문로20다길 2 지하1층 (동선동1가)",127.01687097,37.59152297,0,https://via.placeholder.com/150,NULL
742,블루도어북스,용산/이태원/한남,카페,"서울 용산구 이태원로 239 지하1층 (한남동)",126.99968433,37.53641654,0,https://via.placeholder.com/150,NULL
743,"꼬모윤 서울숲점",건대/성수/왕십리,베이커리,"서울 성동구 서울숲길 50 1층 (성수동1가)",127.04296983,37.54786133,0,https://via.placeholder.com/150,NULL
744,루헤,회기/청량리,카페,"서울 동대문구 경희대로1가길 8 스페이스플러스 2층 (회기동)",127.05153269,37.59207695,0,https://via.placeholder.com/150,NULL
745,츄르츄르라멘,용산/이태원/한남,한식,"서울 용산구 청파로43길 11 1층 (청파동3가)",126.96999686,37.54354144,0,https://via.placeholder.com/150,NULL
